[{"name":"Shanghai","country":"China","iso":"CHN","lat":31.2222,"lon":121.4581,"pop":24874500,"capital":false},{"name":"Beijing","country":"China","iso":"CHN","lat":39.9075,"lon":116.3972,"pop":18960744,"capital":true},{"name":"Shenzhen","country":"China","iso":"CHN","lat":22.5455,"lon":114.0683,"pop":17494398,"capital":false},{"name":"Guangzhou","country":"China","iso":"CHN","lat":23.1167,"lon":113.25,"pop":16096724,"capital":false},{"name":"Kinshasa","country":"Democratic Republic of the Congo","iso":"COD","lat":-4.3276,"lon":15.3136,"pop":16000000,"capital":true},{"name":"Istanbul","country":"Turkey","iso":"TUR","lat":41.0138,"lon":28.9497,"pop":15701602,"capital":false},{"name":"Lagos","country":"Nigeria","iso":"NGA","lat":6.4541,"lon":3.3947,"pop":15388000,"capital":false},{"name":"Ho Chi Minh City","country":"Vietnam","iso":"VNM","lat":10.823,"lon":106.6297,"pop":14002598,"capital":false},{"name":"Chengdu","country":"China","iso":"CHN","lat":30.6667,"lon":104.0667,"pop":13568357,"capital":false},{"name":"Lahore","country":"Pakistan","iso":"PAK","lat":31.558,"lon":74.3507,"pop":13004135,"capital":false},{"name":"Mumbai","country":"India","iso":"IND","lat":19.0728,"lon":72.8826,"pop":12691836,"capital":false},{"name":"São Paulo","country":"Brazil","iso":"BRA","lat":-23.5475,"lon":-46.6361,"pop":12400232,"capital":false},{"name":"Mexico City","country":"Mexico","iso":"MEX","lat":19.4285,"lon":-99.1277,"pop":12294193,"capital":true},{"name":"Karachi","country":"Pakistan","iso":"PAK","lat":24.8608,"lon":67.0104,"pop":11624219,"capital":false},{"name":"Tianjin","country":"China","iso":"CHN","lat":39.1422,"lon":117.1767,"pop":11090314,"capital":false},{"name":"Delhi","country":"India","iso":"IND","lat":28.652,"lon":77.2315,"pop":11034555,"capital":false},{"name":"Wuhan","country":"China","iso":"CHN","lat":30.5833,"lon":114.2667,"pop":10392693,"capital":false},{"name":"Moscow","country":"Russia","iso":"RUS","lat":55.752,"lon":37.6178,"pop":10381222,"capital":true},{"name":"Dhaka","country":"Bangladesh","iso":"BGD","lat":23.7104,"lon":90.4074,"pop":10356500,"capital":true},{"name":"Seoul","country":"South Korea","iso":"KOR","lat":37.566,"lon":126.9784,"pop":10349312,"capital":true},{"name":"Tokyo","country":"Japan","iso":"JPN","lat":35.6895,"lon":139.6917,"pop":9733276,"capital":true},{"name":"Dongguan","country":"China","iso":"CHN","lat":23.018,"lon":113.7487,"pop":9644871,"capital":false},{"name":"Cairo","country":"Egypt","iso":"EGY","lat":30.0626,"lon":31.2497,"pop":9606916,"capital":true},{"name":"Xi’an","country":"China","iso":"CHN","lat":34.2583,"lon":108.9286,"pop":9600000,"capital":false},{"name":"Johannesburg","country":"South Africa","iso":"ZAF","lat":-26.2023,"lon":28.0436,"pop":9418183,"capital":false},{"name":"Nanjing","country":"China","iso":"CHN","lat":32.0617,"lon":118.7778,"pop":9314685,"capital":false},{"name":"Hangzhou","country":"China","iso":"CHN","lat":30.2937,"lon":120.1614,"pop":9236032,"capital":false},{"name":"Foshan","country":"China","iso":"CHN","lat":23.0268,"lon":113.1315,"pop":9042509,"capital":false},{"name":"London","country":"United Kingdom","iso":"GBR","lat":51.5085,"lon":-0.1257,"pop":8961989,"capital":true},{"name":"New York City","country":"United States","iso":"USA","lat":40.7143,"lon":-74.006,"pop":8804190,"capital":false},{"name":"Jakarta","country":"Indonesia","iso":"IDN","lat":-6.2146,"lon":106.8451,"pop":8540121,"capital":true},{"name":"Bengaluru","country":"India","iso":"IND","lat":12.9719,"lon":77.5937,"pop":8495492,"capital":false},{"name":"Hanoi","country":"Vietnam","iso":"VNM","lat":21.0245,"lon":105.8412,"pop":8053663,"capital":true},{"name":"Taipei","country":"Taiwan","iso":"TWN","lat":25.0531,"lon":121.5264,"pop":7871900,"capital":true},{"name":"Lima","country":"Peru","iso":"PER","lat":-12.0432,"lon":-77.0282,"pop":7737002,"capital":true},{"name":"Bogotá","country":"Colombia","iso":"COL","lat":4.6097,"lon":-74.0817,"pop":7674366,"capital":true},{"name":"Chongqing","country":"China","iso":"CHN","lat":29.5603,"lon":106.5577,"pop":7457599,"capital":false},{"name":"Hong Kong","country":"Hong Kong","iso":"HKG","lat":22.2783,"lon":114.1747,"pop":7396076,"capital":true},{"name":"Baghdad","country":"Iraq","iso":"IRQ","lat":33.3406,"lon":44.4009,"pop":7216000,"capital":true},{"name":"Wuzhong","country":"China","iso":"CHN","lat":37.9867,"lon":106.201,"pop":7202654,"capital":false},{"name":"Qingdao","country":"China","iso":"CHN","lat":36.0649,"lon":120.3804,"pop":7172451,"capital":false},{"name":"Tehran","country":"Iran","iso":"IRN","lat":35.6944,"lon":51.4215,"pop":7153309,"capital":true},{"name":"Shenyang","country":"China","iso":"CHN","lat":41.7922,"lon":123.4328,"pop":7050000,"capital":false},{"name":"Hyderabad","country":"India","iso":"IND","lat":17.384,"lon":78.4564,"pop":6993262,"capital":false},{"name":"Rio de Janeiro","country":"Brazil","iso":"BRA","lat":-22.9064,"lon":-43.1822,"pop":6747815,"capital":false},{"name":"Suzhou","country":"China","iso":"CHN","lat":31.3041,"lon":120.5954,"pop":6715559,"capital":false},{"name":"Ahmedabad","country":"India","iso":"IND","lat":23.0258,"lon":72.5873,"pop":6357693,"capital":false},{"name":"Abidjan","country":"Ivory Coast","iso":"CIV","lat":5.3544,"lon":-4.0017,"pop":6321017,"capital":false},{"name":"Pudong","country":"China","iso":"CHN","lat":31.24,"lon":121.5009,"pop":5681512,"capital":false},{"name":"Singapore","country":"Singapore","iso":"SGP","lat":1.2897,"lon":103.8501,"pop":5638700,"capital":true},{"name":"Sydney","country":"Australia","iso":"AUS","lat":-33.8678,"lon":151.2073,"pop":5557233,"capital":false},{"name":"Dar es Salaam","country":"Tanzania","iso":"TZA","lat":-6.8235,"lon":39.2695,"pop":5383728,"capital":false},{"name":"Saint Petersburg","country":"Russia","iso":"RUS","lat":59.9386,"lon":30.3141,"pop":5351935,"capital":false},{"name":"Melbourne","country":"Australia","iso":"AUS","lat":-37.814,"lon":144.9633,"pop":5350705,"capital":false},{"name":"Alexandria","country":"Egypt","iso":"EGY","lat":31.2018,"lon":29.9158,"pop":5263542,"capital":false},{"name":"Harbin","country":"China","iso":"CHN","lat":45.75,"lon":126.65,"pop":5242897,"capital":false},{"name":"Bangkok","country":"Thailand","iso":"THA","lat":13.754,"lon":100.5014,"pop":5104476,"capital":true},{"name":"Hefei","country":"China","iso":"CHN","lat":31.8639,"lon":117.2808,"pop":5050000,"capital":false},{"name":"Dalian","country":"China","iso":"CHN","lat":38.9122,"lon":121.6022,"pop":4913879,"capital":false},{"name":"Kano","country":"Nigeria","iso":"NGA","lat":12.0001,"lon":8.5167,"pop":4910000,"capital":false},{"name":"Santiago","country":"Chile","iso":"CHL","lat":-33.4569,"lon":-70.6483,"pop":4837295,"capital":true},{"name":"Cape Town","country":"South Africa","iso":"ZAF","lat":-33.9258,"lon":18.4232,"pop":4772846,"capital":false},{"name":"Peshawar","country":"Pakistan","iso":"PAK","lat":34.008,"lon":71.5785,"pop":4758762,"capital":false},{"name":"Changchun","country":"China","iso":"CHN","lat":43.88,"lon":125.3228,"pop":4714996,"capital":false},{"name":"Jeddah","country":"Saudi Arabia","iso":"SAU","lat":21.4901,"lon":39.1862,"pop":4697000,"capital":false},{"name":"Chennai","country":"India","iso":"IND","lat":13.0878,"lon":80.2785,"pop":4681087,"capital":false},{"name":"Kolkata","country":"India","iso":"IND","lat":22.5626,"lon":88.363,"pop":4631392,"capital":false},{"name":"Xiamen","country":"China","iso":"CHN","lat":24.4798,"lon":118.0819,"pop":4617251,"capital":false},{"name":"Surat","country":"India","iso":"IND","lat":21.1959,"lon":72.8302,"pop":4591246,"capital":false},{"name":"Yangon","country":"Myanmar","iso":"MMR","lat":16.8053,"lon":96.1561,"pop":4477638,"capital":false},{"name":"Bao'an","country":"China","iso":"CHN","lat":22.5521,"lon":113.8829,"pop":4476554,"capital":false},{"name":"Kabul","country":"Afghanistan","iso":"AFG","lat":34.5281,"lon":69.1723,"pop":4434550,"capital":true},{"name":"Nairobi","country":"Kenya","iso":"KEN","lat":-1.2833,"lon":36.8167,"pop":4397073,"capital":true},{"name":"Wuxi","country":"China","iso":"CHN","lat":31.5689,"lon":120.2886,"pop":4396835,"capital":false},{"name":"Giza","country":"Egypt","iso":"EGY","lat":30.0094,"lon":31.2086,"pop":4367343,"capital":false},{"name":"Jinan","country":"China","iso":"CHN","lat":36.6683,"lon":116.9972,"pop":4335989,"capital":false},{"name":"Taiyuan","country":"China","iso":"CHN","lat":37.8694,"lon":112.5603,"pop":4303673,"capital":false},{"name":"Zhengzhou","country":"China","iso":"CHN","lat":34.7578,"lon":113.6486,"pop":4253913,"capital":false},{"name":"Bamako","country":"Mali","iso":"MLI","lat":12.6092,"lon":-7.9752,"pop":4227569,"capital":true},{"name":"Riyadh","country":"Saudi Arabia","iso":"SAU","lat":24.6877,"lon":46.7219,"pop":4205961,"capital":true},{"name":"New Taipei City","country":"Taiwan","iso":"TWN","lat":25.062,"lon":121.457,"pop":4004367,"capital":false},{"name":"New Territories","country":"Hong Kong","iso":"HKG","lat":22.4244,"lon":114.111,"pop":3984077,"capital":false},{"name":"Shijiazhuang","country":"China","iso":"CHN","lat":38.0414,"lon":114.4786,"pop":3938513,"capital":false},{"name":"Chattogram","country":"Bangladesh","iso":"BGD","lat":22.3384,"lon":91.8317,"pop":3920222,"capital":false},{"name":"Addis Ababa","country":"Ethiopia","iso":"ETH","lat":9.025,"lon":38.7469,"pop":3860000,"capital":true},{"name":"Kunming","country":"China","iso":"CHN","lat":25.0389,"lon":102.7183,"pop":3855346,"capital":false},{"name":"Zhongshan","country":"China","iso":"CHN","lat":22.5231,"lon":113.3791,"pop":3841873,"capital":false},{"name":"Nanning","country":"China","iso":"CHN","lat":22.8167,"lon":108.3167,"pop":3839800,"capital":false},{"name":"Shantou","country":"China","iso":"CHN","lat":23.3549,"lon":116.6788,"pop":3838900,"capital":false},{"name":"Los Angeles","country":"United States","iso":"USA","lat":34.0522,"lon":-118.2437,"pop":3820914,"capital":false},{"name":"Faisalabad","country":"Pakistan","iso":"PAK","lat":31.4155,"lon":73.0897,"pop":3800193,"capital":false},{"name":"Dubai","country":"United Arab Emirates","iso":"ARE","lat":25.0773,"lon":55.3093,"pop":3790000,"capital":false},{"name":"Yokohama","country":"Japan","iso":"JPN","lat":35.4333,"lon":139.65,"pop":3777491,"capital":false},{"name":"Fuzhou","country":"China","iso":"CHN","lat":26.0614,"lon":119.3061,"pop":3740000,"capital":false},{"name":"Ningbo","country":"China","iso":"CHN","lat":29.8782,"lon":121.5495,"pop":3731203,"capital":false},{"name":"Casablanca","country":"Morocco","iso":"MAR","lat":33.5883,"lon":-7.6114,"pop":3665954,"capital":false},{"name":"Ibadan","country":"Nigeria","iso":"NGA","lat":7.3776,"lon":3.9059,"pop":3649000,"capital":false},{"name":"Puyang","country":"China","iso":"CHN","lat":29.4568,"lon":119.8887,"pop":3590000,"capital":false},{"name":"Ankara","country":"Turkey","iso":"TUR","lat":39.9199,"lon":32.8543,"pop":3517182,"capital":true},{"name":"Shiyan","country":"China","iso":"CHN","lat":32.6475,"lon":110.7781,"pop":3460000,"capital":false},{"name":"Berlin","country":"Germany","iso":"DEU","lat":52.5244,"lon":13.4105,"pop":3426354,"capital":true},{"name":"Tangshan","country":"China","iso":"CHN","lat":39.6438,"lon":118.1832,"pop":3372102,"capital":false},{"name":"Rawalpindi","country":"Pakistan","iso":"PAK","lat":33.5973,"lon":73.0479,"pop":3357612,"capital":false},{"name":"Lüliang","country":"China","iso":"CHN","lat":37.5192,"lon":111.1444,"pop":3346500,"capital":false},{"name":"Busan","country":"South Korea","iso":"KOR","lat":35.1017,"lon":129.03,"pop":3343903,"capital":false},{"name":"Durban","country":"South Africa","iso":"ZAF","lat":-29.8579,"lon":31.0292,"pop":3338026,"capital":false},{"name":"Changzhou","country":"China","iso":"CHN","lat":31.7736,"lon":119.954,"pop":3290918,"capital":false},{"name":"Madrid","country":"Spain","iso":"ESP","lat":40.4165,"lon":-3.7026,"pop":3255944,"capital":true},{"name":"Pyongyang","country":"North Korea","iso":"PRK","lat":39.0339,"lon":125.7543,"pop":3222000,"capital":true},{"name":"Zibo","country":"China","iso":"CHN","lat":36.7906,"lon":118.0633,"pop":3129228,"capital":false},{"name":"Pune","country":"India","iso":"IND","lat":18.5196,"lon":73.8554,"pop":3124458,"capital":false},{"name":"Bursa","country":"Turkey","iso":"TUR","lat":40.1956,"lon":29.0601,"pop":3101833,"capital":false},{"name":"Changsha","country":"China","iso":"CHN","lat":28.1987,"lon":112.9709,"pop":3093980,"capital":false},{"name":"Quezon City","country":"Philippines","iso":"PHL","lat":14.6488,"lon":121.0509,"pop":3084270,"capital":false},{"name":"Jaipur","country":"India","iso":"IND","lat":26.9196,"lon":75.7878,"pop":3046163,"capital":false},{"name":"Incheon","country":"South Korea","iso":"KOR","lat":37.4565,"lon":126.7052,"pop":3039450,"capital":false},{"name":"Guiyang","country":"China","iso":"CHN","lat":26.5833,"lon":106.7167,"pop":3037159,"capital":false},{"name":"Ürümqi","country":"China","iso":"CHN","lat":43.801,"lon":87.6005,"pop":3029372,"capital":false},{"name":"Lanzhou","country":"China","iso":"CHN","lat":36.057,"lon":103.8399,"pop":3000000,"capital":false},{"name":"Caracas","country":"Venezuela","iso":"VEN","lat":10.488,"lon":-66.8792,"pop":3000000,"capital":true},{"name":"Kyiv","country":"Ukraine","iso":"UKR","lat":50.4547,"lon":30.5238,"pop":2952301,"capital":true},{"name":"İzmir","country":"Turkey","iso":"TUR","lat":38.4127,"lon":27.1384,"pop":2938292,"capital":false},{"name":"Huizhou","country":"China","iso":"CHN","lat":23.1115,"lon":114.4152,"pop":2900113,"capital":false},{"name":"Buenos Aires","country":"Argentina","iso":"ARG","lat":-34.6131,"lon":-58.3772,"pop":2891082,"capital":true},{"name":"Surabaya","country":"Indonesia","iso":"IDN","lat":-7.2492,"lon":112.7508,"pop":2874314,"capital":false},{"name":"Haikou","country":"China","iso":"CHN","lat":20.0342,"lon":110.3465,"pop":2873358,"capital":false},{"name":"Taichung","country":"Taiwan","iso":"TWN","lat":24.1469,"lon":120.6839,"pop":2850285,"capital":false},{"name":"Kanpur","country":"India","iso":"IND","lat":26.4652,"lon":80.3498,"pop":2823249,"capital":false},{"name":"Toronto","country":"Canada","iso":"CAN","lat":43.7064,"lon":-79.3986,"pop":2794356,"capital":false},{"name":"Quito","country":"Ecuador","iso":"ECU","lat":-0.2298,"lon":-78.5249,"pop":2781641,"capital":true},{"name":"Brisbane","country":"Australia","iso":"AUS","lat":-27.4679,"lon":153.0281,"pop":2780063,"capital":false},{"name":"Luanda","country":"Angola","iso":"AGO","lat":-8.8368,"lon":13.2343,"pop":2776168,"capital":true},{"name":"Osaka","country":"Japan","iso":"JPN","lat":34.6938,"lon":135.5011,"pop":2753862,"capital":false},{"name":"Linyi","country":"China","iso":"CHN","lat":35.0631,"lon":118.3428,"pop":2743843,"capital":false},{"name":"Baoding","country":"China","iso":"CHN","lat":38.8729,"lon":115.4625,"pop":2739887,"capital":false},{"name":"Kaohsiung","country":"Taiwan","iso":"TWN","lat":22.6163,"lon":120.3133,"pop":2737660,"capital":false},{"name":"Brooklyn","country":"United States","iso":"USA","lat":40.6501,"lon":-73.9496,"pop":2736074,"capital":false},{"name":"Guayaquil","country":"Ecuador","iso":"ECU","lat":-2.1962,"lon":-79.8862,"pop":2723665,"capital":false},{"name":"Belo Horizonte","country":"Brazil","iso":"BRA","lat":-19.9208,"lon":-43.9378,"pop":2721564,"capital":false},{"name":"Minhang","country":"China","iso":"CHN","lat":31.1088,"lon":121.3747,"pop":2716600,"capital":false},{"name":"Salvador","country":"Brazil","iso":"BRA","lat":-12.9756,"lon":-38.491,"pop":2711840,"capital":false},{"name":"Abuja","country":"Nigeria","iso":"NGA","lat":9.0579,"lon":7.4951,"pop":2690000,"capital":true},{"name":"Gazipur","country":"Bangladesh","iso":"BGD","lat":23.9984,"lon":90.4223,"pop":2674697,"capital":false},{"name":"Chicago","country":"United States","iso":"USA","lat":41.85,"lon":-87.65,"pop":2664452,"capital":false},{"name":"Wenzhou","country":"China","iso":"CHN","lat":27.9994,"lon":120.6668,"pop":2650000,"capital":false},{"name":"Dakar","country":"Senegal","iso":"SEN","lat":14.6937,"lon":-17.4441,"pop":2646503,"capital":true},{"name":"Haiphong","country":"Vietnam","iso":"VNM","lat":20.8648,"lon":106.6835,"pop":2625200,"capital":false},{"name":"Yunfu","country":"China","iso":"CHN","lat":22.9279,"lon":112.0381,"pop":2612800,"capital":false},{"name":"Navi Mumbai","country":"India","iso":"IND","lat":19.0368,"lon":73.0158,"pop":2600000,"capital":false},{"name":"Mogadishu","country":"Somalia","iso":"SOM","lat":2.0371,"lon":45.3438,"pop":2587183,"capital":true},{"name":"Bekasi","country":"Indonesia","iso":"IDN","lat":-6.2349,"lon":106.9896,"pop":2564940,"capital":false},{"name":"Kumasi","country":"Ghana","iso":"GHA","lat":6.6885,"lon":-1.6244,"pop":2544530,"capital":false},{"name":"Gujranwala","country":"Pakistan","iso":"PAK","lat":32.1557,"lon":74.1871,"pop":2511118,"capital":false},{"name":"Huai'an","country":"China","iso":"CHN","lat":33.5886,"lon":119.0192,"pop":2494013,"capital":false},{"name":"Lucknow","country":"India","iso":"IND","lat":26.8393,"lon":80.9231,"pop":2472011,"capital":false},{"name":"Bandung","country":"Indonesia","iso":"IDN","lat":-6.9222,"lon":107.6069,"pop":2444160,"capital":false},{"name":"Medan","country":"Indonesia","iso":"IDN","lat":3.5833,"lon":98.6667,"pop":2435252,"capital":false},{"name":"Ouagadougou","country":"Burkina Faso","iso":"BFA","lat":12.3657,"lon":-1.5339,"pop":2415266,"capital":true},{"name":"Nagpur","country":"India","iso":"IND","lat":21.1463,"lon":79.0849,"pop":2405665,"capital":false},{"name":"Fortaleza","country":"Brazil","iso":"BRA","lat":-3.7172,"lon":-38.5431,"pop":2400000,"capital":false},{"name":"Cali","country":"Colombia","iso":"COL","lat":3.4305,"lon":-76.5199,"pop":2392877,"capital":false},{"name":"Daegu","country":"South Korea","iso":"KOR","lat":35.8703,"lon":128.5911,"pop":2365523,"capital":false},{"name":"Algiers","country":"Algeria","iso":"DZA","lat":36.7323,"lon":3.0875,"pop":2364230,"capital":true},{"name":"Nanchang","country":"China","iso":"CHN","lat":28.684,"lon":115.8531,"pop":2357839,"capital":false},{"name":"Baku","country":"Azerbaijan","iso":"AZE","lat":40.3777,"lon":49.892,"pop":2351300,"capital":true},{"name":"Hohhot","country":"China","iso":"CHN","lat":40.8106,"lon":111.6522,"pop":2350000,"capital":false},{"name":"Nagoya","country":"Japan","iso":"JPN","lat":35.1815,"lon":136.9064,"pop":2332176,"capital":false},{"name":"Rome","country":"Italy","iso":"ITA","lat":41.8919,"lon":12.5113,"pop":2318895,"capital":true},{"name":"Queens","country":"United States","iso":"USA","lat":40.6815,"lon":-73.8365,"pop":2316841,"capital":false},{"name":"Houston","country":"United States","iso":"USA","lat":29.7633,"lon":-95.3633,"pop":2314157,"capital":false},{"name":"Perth","country":"Australia","iso":"AUS","lat":-31.9522,"lon":115.8614,"pop":2309338,"capital":false},{"name":"Mashhad","country":"Iran","iso":"IRN","lat":36.2981,"lon":59.6057,"pop":2307177,"capital":false},{"name":"Shaoxing","country":"China","iso":"CHN","lat":30.0024,"lon":120.5786,"pop":2300000,"capital":false},{"name":"Nantong","country":"China","iso":"CHN","lat":32.0303,"lon":120.8747,"pop":2273326,"capital":false},{"name":"Baoshan","country":"China","iso":"CHN","lat":31.4085,"lon":121.4896,"pop":2265900,"capital":false},{"name":"Kowloon","country":"Hong Kong","iso":"HKG","lat":22.3167,"lon":114.1833,"pop":2232339,"capital":false},{"name":"Yantai","country":"China","iso":"CHN","lat":37.4765,"lon":121.4408,"pop":2227733,"capital":false},{"name":"Lubumbashi","country":"Democratic Republic of the Congo","iso":"COD","lat":-11.6609,"lon":27.4794,"pop":2221925,"capital":false},{"name":"Manaus","country":"Brazil","iso":"BRA","lat":-3.1019,"lon":-60.025,"pop":2219580,"capital":false},{"name":"Lusaka","country":"Zambia","iso":"ZMB","lat":-15.4067,"lon":28.2871,"pop":2212301,"capital":true},{"name":"Brasília","country":"Brazil","iso":"BRA","lat":-15.7797,"lon":-47.9297,"pop":2207718,"capital":true},{"name":"Zhuhai","country":"China","iso":"CHN","lat":22.2769,"lon":113.5678,"pop":2207090,"capital":false},{"name":"Santo Domingo","country":"Dominican Republic","iso":"DOM","lat":18.4719,"lon":-69.8923,"pop":2201941,"capital":true},{"name":"Lomé","country":"Togo","iso":"TGO","lat":6.1287,"lon":1.2215,"pop":2188376,"capital":true},{"name":"Multan","country":"Pakistan","iso":"PAK","lat":30.1968,"lon":71.4782,"pop":2169915,"capital":false},{"name":"Havana","country":"Cuba","iso":"CUB","lat":23.133,"lon":-82.383,"pop":2163824,"capital":true},{"name":"Baotou","country":"China","iso":"CHN","lat":40.6516,"lon":109.8439,"pop":2150000,"capital":false},{"name":"Depok","country":"Indonesia","iso":"IDN","lat":-6.4,"lon":106.8186,"pop":2145400,"capital":false},{"name":"Paris","country":"France","iso":"FRA","lat":48.8534,"lon":2.3488,"pop":2138551,"capital":true},{"name":"Coimbatore","country":"India","iso":"IND","lat":11.0056,"lon":76.9661,"pop":2136916,"capital":false},{"name":"Gaziantep","country":"Turkey","iso":"TUR","lat":37.0594,"lon":37.3825,"pop":2130432,"capital":false},{"name":"Qingyang","country":"China","iso":"CHN","lat":35.7098,"lon":107.6446,"pop":2125400,"capital":false},{"name":"Port Harcourt","country":"Nigeria","iso":"NGA","lat":4.7774,"lon":7.0134,"pop":2120000,"capital":false},{"name":"Pretoria","country":"South Africa","iso":"ZAF","lat":-25.7449,"lon":28.1878,"pop":2112693,"capital":true},{"name":"Córdoba","country":"Argentina","iso":"ARG","lat":-31.4065,"lon":-64.1885,"pop":2106734,"capital":false},{"name":"Mbuji-Mayi","country":"Democratic Republic of the Congo","iso":"COD","lat":-6.136,"lon":23.5898,"pop":2101332,"capital":false},{"name":"Aleppo","country":"Syria","iso":"SYR","lat":36.2012,"lon":37.1612,"pop":2098210,"capital":false},{"name":"Kunshan","country":"China","iso":"CHN","lat":31.3776,"lon":120.9543,"pop":2092496,"capital":false},{"name":"Al Mawşil al Jadīdah","country":"Iraq","iso":"IRQ","lat":36.3327,"lon":43.1056,"pop":2065597,"capital":false},{"name":"Weifang","country":"China","iso":"CHN","lat":36.71,"lon":119.1019,"pop":2044028,"capital":false},{"name":"Zunyi","country":"China","iso":"CHN","lat":27.6867,"lon":106.9072,"pop":2037775,"capital":false},{"name":"Al Başrah al Qadīmah","country":"Iraq","iso":"IRQ","lat":30.5032,"lon":47.8151,"pop":2015483,"capital":false},{"name":"La Paz","country":"Bolivia","iso":"BOL","lat":-16.5,"lon":-68.15,"pop":2004652,"capital":false},{"name":"Lianyungang","country":"China","iso":"CHN","lat":34.5985,"lon":119.2156,"pop":2001009,"capital":false},{"name":"Medellín","country":"Colombia","iso":"COL","lat":6.245,"lon":-75.5715,"pop":1999979,"capital":false},{"name":"Indore","country":"India","iso":"IND","lat":22.7179,"lon":75.8333,"pop":1994397,"capital":false},{"name":"Brazzaville","country":"Republic of the Congo","iso":"COG","lat":-4.2661,"lon":15.2832,"pop":1982000,"capital":true},{"name":"Tashkent","country":"Uzbekistan","iso":"UZB","lat":41.2647,"lon":69.2163,"pop":1978028,"capital":true},{"name":"Ganzhou","country":"China","iso":"CHN","lat":25.8466,"lon":114.9326,"pop":1977253,"capital":false},{"name":"Almaty","country":"Kazakhstan","iso":"KAZ","lat":43.2525,"lon":76.9115,"pop":1977011,"capital":false},{"name":"Khartoum","country":"Sudan","iso":"SDN","lat":15.5518,"lon":32.5324,"pop":1974647,"capital":true},{"name":"Sapporo","country":"Japan","iso":"JPN","lat":43.0667,"lon":141.35,"pop":1973832,"capital":false},{"name":"Songjiang","country":"China","iso":"CHN","lat":31.0344,"lon":121.2233,"pop":1973500,"capital":false},{"name":"Accra","country":"Ghana","iso":"GHA","lat":5.556,"lon":-0.1969,"pop":1963264,"capital":true},{"name":"Curitiba","country":"Brazil","iso":"BRA","lat":-25.4278,"lon":-49.2731,"pop":1948626,"capital":false},{"name":"Ordos","country":"China","iso":"CHN","lat":39.6086,"lon":109.7816,"pop":1940653,"capital":false},{"name":"Sanaa","country":"Yemen","iso":"YEM","lat":15.3545,"lon":44.2065,"pop":1937451,"capital":true},{"name":"Conakry","country":"Guinea","iso":"GIN","lat":9.538,"lon":-13.6773,"pop":1928389,"capital":true},{"name":"Tijuana","country":"Mexico","iso":"MEX","lat":32.5027,"lon":-117.0037,"pop":1922523,"capital":false},{"name":"Hyderabad","country":"Pakistan","iso":"PAK","lat":25.3969,"lon":68.3772,"pop":1921275,"capital":false},{"name":"Beirut","country":"Lebanon","iso":"LBN","lat":33.8933,"lon":35.5016,"pop":1916100,"capital":true},{"name":"Tangerang","country":"Indonesia","iso":"IDN","lat":-6.1781,"lon":106.63,"pop":1912679,"capital":false},{"name":"Jieyang","country":"China","iso":"CHN","lat":23.5418,"lon":116.3658,"pop":1899394,"capital":false},{"name":"Jilin","country":"China","iso":"CHN","lat":43.8465,"lon":126.5608,"pop":1895865,"capital":false},{"name":"Jiading","country":"China","iso":"CHN","lat":31.3858,"lon":121.2447,"pop":1886100,"capital":false},{"name":"Bucharest","country":"Romania","iso":"ROU","lat":44.4323,"lon":26.1063,"pop":1877155,"capital":true},{"name":"Camayenne","country":"Guinea","iso":"GIN","lat":9.535,"lon":-13.6878,"pop":1871242,"capital":false},{"name":"Kakamega","country":"Kenya","iso":"KEN","lat":0.2842,"lon":34.7523,"pop":1867579,"capital":false},{"name":"Nanchong","country":"China","iso":"CHN","lat":30.7951,"lon":106.0847,"pop":1858875,"capital":false},{"name":"Tainan","country":"Taiwan","iso":"TWN","lat":22.9908,"lon":120.2133,"pop":1856642,"capital":false},{"name":"Datong","country":"China","iso":"CHN","lat":40.0936,"lon":113.2914,"pop":1850000,"capital":false},{"name":"Kaduna","country":"Nigeria","iso":"NGA","lat":10.5264,"lon":7.4388,"pop":1850000,"capital":false},{"name":"Omdurman","country":"Sudan","iso":"SDN","lat":15.6445,"lon":32.4777,"pop":1849659,"capital":false},{"name":"Davao","country":"Philippines","iso":"PHL","lat":7.0731,"lon":125.6128,"pop":1848947,"capital":false},{"name":"Hamburg","country":"Germany","iso":"DEU","lat":53.5507,"lon":9.993,"pop":1845229,"capital":false},{"name":"Thāne","country":"India","iso":"IND","lat":19.197,"lon":72.9636,"pop":1841488,"capital":false},{"name":"Iztapalapa","country":"Mexico","iso":"MEX","lat":19.3553,"lon":-99.0622,"pop":1835486,"capital":false},{"name":"Diyarbakır","country":"Turkey","iso":"TUR","lat":37.9136,"lon":40.2172,"pop":1833684,"capital":false},{"name":"Santa Cruz de la Sierra","country":"Bolivia","iso":"BOL","lat":-17.7863,"lon":-63.1812,"pop":1831434,"capital":false},{"name":"Vadodara","country":"India","iso":"IND","lat":22.2994,"lon":73.2081,"pop":1822221,"capital":false},{"name":"Adana","country":"Turkey","iso":"TUR","lat":36.9862,"lon":35.3253,"pop":1816750,"capital":false},{"name":"Nanyang","country":"China","iso":"CHN","lat":33.0052,"lon":112.5466,"pop":1811812,"capital":false},{"name":"Abu Dhabi","country":"United Arab Emirates","iso":"ARE","lat":24.4512,"lon":54.397,"pop":1807000,"capital":true},{"name":"Sharjah","country":"United Arab Emirates","iso":"ARE","lat":25.3342,"lon":55.4122,"pop":1800000,"capital":false},{"name":"Bhopal","country":"India","iso":"IND","lat":23.2547,"lon":77.4029,"pop":1798218,"capital":false},{"name":"Jiangmen","country":"China","iso":"CHN","lat":22.5833,"lon":113.0833,"pop":1795459,"capital":false},{"name":"Benin City","country":"Nigeria","iso":"NGA","lat":6.3382,"lon":5.6258,"pop":1782000,"capital":false},{"name":"Jiangyin","country":"China","iso":"CHN","lat":31.911,"lon":120.263,"pop":1779515,"capital":false},{"name":"Fuyang","country":"China","iso":"CHN","lat":32.9,"lon":115.8167,"pop":1768947,"capital":false},{"name":"Montréal","country":"Canada","iso":"CAN","lat":45.5088,"lon":-73.5878,"pop":1762949,"capital":false},{"name":"Bayan Nur","country":"China","iso":"CHN","lat":40.7414,"lon":107.386,"pop":1760000,"capital":false},{"name":"Maracaibo","country":"Venezuela","iso":"VEN","lat":10.6423,"lon":-71.6109,"pop":1752602,"capital":false},{"name":"Chaozhou","country":"China","iso":"CHN","lat":23.654,"lon":116.6226,"pop":1750945,"capital":false},{"name":"Minsk","country":"Belarus","iso":"BLR","lat":53.9002,"lon":27.5665,"pop":1742124,"capital":true},{"name":"Budapest","country":"Hungary","iso":"HUN","lat":47.4984,"lon":19.0405,"pop":1741041,"capital":true},{"name":"Qingyuan","country":"China","iso":"CHN","lat":23.7,"lon":113.0333,"pop":1738424,"capital":false},{"name":"Tai’an","country":"China","iso":"CHN","lat":36.1853,"lon":117.12,"pop":1735425,"capital":false},{"name":"Rasapūdipalem","country":"India","iso":"IND","lat":17.7331,"lon":83.3162,"pop":1728128,"capital":false},{"name":"Pimpri-Chinchwad","country":"India","iso":"IND","lat":18.6187,"lon":73.8037,"pop":1727692,"capital":false},{"name":"Caloocan","country":"Philippines","iso":"PHL","lat":14.6495,"lon":120.9679,"pop":1712945,"capital":false},{"name":"Warsaw","country":"Poland","iso":"POL","lat":52.2298,"lon":21.0118,"pop":1702139,"capital":true},{"name":"Soweto","country":"South Africa","iso":"ZAF","lat":-26.2678,"lon":27.8585,"pop":1695047,"capital":false},{"name":"Puebla","country":"Mexico","iso":"MEX","lat":19.0478,"lon":-98.2072,"pop":1692181,"capital":false},{"name":"Vienna","country":"Austria","iso":"AUT","lat":48.2085,"lon":16.3721,"pop":1691468,"capital":true},{"name":"Barcelona","country":"Spain","iso":"ESP","lat":41.3888,"lon":2.159,"pop":1686208,"capital":false},{"name":"Patna","country":"India","iso":"IND","lat":25.5941,"lon":85.1356,"pop":1684297,"capital":false},{"name":"Mosul","country":"Iraq","iso":"IRQ","lat":36.335,"lon":43.1189,"pop":1683000,"capital":false},{"name":"Kallakurichi","country":"India","iso":"IND","lat":11.7338,"lon":78.9593,"pop":1682687,"capital":false},{"name":"Kampala","country":"Uganda","iso":"UGA","lat":0.3163,"lon":32.5822,"pop":1680600,"capital":true},{"name":"Xining","country":"China","iso":"CHN","lat":36.6255,"lon":101.7574,"pop":1677177,"capital":false},{"name":"Changshu","country":"China","iso":"CHN","lat":31.6462,"lon":120.7422,"pop":1677050,"capital":false},{"name":"Palembang","country":"Indonesia","iso":"IDN","lat":-2.9167,"lon":104.7458,"pop":1668848,"capital":false},{"name":"Huainan","country":"China","iso":"CHN","lat":32.6264,"lon":116.9969,"pop":1666826,"capital":false},{"name":"Rabat","country":"Morocco","iso":"MAR","lat":34.0133,"lon":-6.8325,"pop":1655753,"capital":true},{"name":"Semarang","country":"Indonesia","iso":"IDN","lat":-6.9931,"lon":110.4208,"pop":1653524,"capital":false},{"name":"Recife","country":"Brazil","iso":"BRA","lat":-8.0539,"lon":-34.8811,"pop":1653461,"capital":false},{"name":"Phoenix","country":"United States","iso":"USA","lat":33.4484,"lon":-112.074,"pop":1650070,"capital":false},{"name":"Suzhou","country":"China","iso":"CHN","lat":33.6361,"lon":116.9789,"pop":1647642,"capital":false},{"name":"Ecatepec de Morelos","country":"Mexico","iso":"MEX","lat":19.6049,"lon":-99.0606,"pop":1645352,"capital":false},{"name":"Lu’an","country":"China","iso":"CHN","lat":31.7356,"lon":116.5169,"pop":1644344,"capital":false},{"name":"Valencia","country":"Venezuela","iso":"VEN","lat":10.1615,"lon":-68.0004,"pop":1619470,"capital":false},{"name":"Ludhiana","country":"India","iso":"IND","lat":30.912,"lon":75.8538,"pop":1618879,"capital":false},{"name":"Yancheng","country":"China","iso":"CHN","lat":33.3575,"lon":120.1573,"pop":1615717,"capital":false},{"name":"Novosibirsk","country":"Russia","iso":"RUS","lat":55.0226,"lon":82.9317,"pop":1612833,"capital":false},{"name":"Erbil","country":"Iraq","iso":"IRQ","lat":36.1912,"lon":44.0094,"pop":1612700,"capital":false},{"name":"Fukuoka","country":"Japan","iso":"JPN","lat":33.6,"lon":130.4167,"pop":1612392,"capital":false},{"name":"Taizhou","country":"China","iso":"CHN","lat":32.4907,"lon":119.9081,"pop":1607108,"capital":false},{"name":"Daqing","country":"China","iso":"CHN","lat":46.5833,"lon":125,"pop":1604027,"capital":false},{"name":"Manila","country":"Philippines","iso":"PHL","lat":14.6042,"lon":120.9822,"pop":1600000,"capital":true},{"name":"Wuhu","country":"China","iso":"CHN","lat":31.3526,"lon":118.4295,"pop":1598165,"capital":false},{"name":"Santiago de Querétaro","country":"Mexico","iso":"MEX","lat":20.5881,"lon":-100.3881,"pop":1594212,"capital":false},{"name":"Dazhou","country":"China","iso":"CHN","lat":31.2106,"lon":107.4631,"pop":1589435,"capital":false},{"name":"Yangzhou","country":"China","iso":"CHN","lat":32.3972,"lon":119.4358,"pop":1584237,"capital":false},{"name":"León de los Aldama","country":"Mexico","iso":"MEX","lat":21.1291,"lon":-101.6737,"pop":1579803,"capital":false},{"name":"Makkah","country":"Saudi Arabia","iso":"SAU","lat":21.4266,"lon":39.8256,"pop":1578722,"capital":false},{"name":"Philadelphia","country":"United States","iso":"USA","lat":39.9524,"lon":-75.1636,"pop":1573916,"capital":false},{"name":"Phnom Penh","country":"Cambodia","iso":"KHM","lat":11.5625,"lon":104.916,"pop":1573544,"capital":true},{"name":"Guilin","country":"China","iso":"CHN","lat":25.2802,"lon":110.2964,"pop":1572300,"capital":false},{"name":"Damascus","country":"Syria","iso":"SYR","lat":33.5102,"lon":36.2913,"pop":1569394,"capital":true},{"name":"Quetta","country":"Pakistan","iso":"PAK","lat":30.1841,"lon":67.0014,"pop":1565546,"capital":false},{"name":"Zhaoqing","country":"China","iso":"CHN","lat":23.0489,"lon":112.4609,"pop":1553109,"capital":false},{"name":"Onitsha","country":"Nigeria","iso":"NGA","lat":6.1498,"lon":6.7857,"pop":1553000,"capital":false},{"name":"Mianyang","country":"China","iso":"CHN","lat":31.4678,"lon":104.6817,"pop":1550000,"capital":false},{"name":"Isfahan","country":"Iran","iso":"IRN","lat":32.6525,"lon":51.6746,"pop":1547164,"capital":false},{"name":"Wanzhou","country":"China","iso":"CHN","lat":30.7645,"lon":108.3959,"pop":1545900,"capital":false},{"name":"Harare","country":"Zimbabwe","iso":"ZWE","lat":-17.8277,"lon":31.0534,"pop":1542813,"capital":true},{"name":"Monrovia","country":"Liberia","iso":"LBR","lat":6.3005,"lon":-10.7969,"pop":1542549,"capital":true},{"name":"Putian","country":"China","iso":"CHN","lat":25.4394,"lon":119.0103,"pop":1539389,"capital":false},{"name":"Kawasaki","country":"Japan","iso":"JPN","lat":35.5206,"lon":139.7172,"pop":1538262,"capital":false},{"name":"Shangqiu","country":"China","iso":"CHN","lat":34.45,"lon":115.65,"pop":1536392,"capital":false},{"name":"Goiânia","country":"Brazil","iso":"BRA","lat":-16.6786,"lon":-49.2539,"pop":1536097,"capital":false},{"name":"Auckland","country":"New Zealand","iso":"NZL","lat":-36.8485,"lon":174.7635,"pop":1530500,"capital":false},{"name":"San Antonio","country":"United States","iso":"USA","lat":29.4241,"lon":-98.4936,"pop":1526656,"capital":false},{"name":"Kobe","country":"Japan","iso":"JPN","lat":34.6913,"lon":135.183,"pop":1525152,"capital":false},{"name":"Stockholm","country":"Sweden","iso":"SWE","lat":59.3294,"lon":18.0687,"pop":1515017,"capital":true},{"name":"Ciudad Juárez","country":"Mexico","iso":"MEX","lat":31.7202,"lon":-106.4608,"pop":1512450,"capital":false},{"name":"Cần Thơ","country":"Vietnam","iso":"VNM","lat":10.0371,"lon":105.7883,"pop":1507187,"capital":false},{"name":"Khulna","country":"Bangladesh","iso":"BGD","lat":22.8098,"lon":89.5644,"pop":1500689,"capital":false},{"name":"Belém","country":"Brazil","iso":"BRA","lat":-1.4558,"lon":-48.5044,"pop":1499641,"capital":false},{"name":"Yekaterinburg","country":"Russia","iso":"RUS","lat":56.8573,"lon":60.6153,"pop":1495066,"capital":false},{"name":"Porto Alegre","country":"Brazil","iso":"BRA","lat":-30.0328,"lon":-51.2302,"pop":1488252,"capital":false},{"name":"Yinchuan","country":"China","iso":"CHN","lat":38.4681,"lon":106.2731,"pop":1487579,"capital":false},{"name":"Manhattan","country":"United States","iso":"USA","lat":40.7834,"lon":-73.9662,"pop":1487536,"capital":false},{"name":"Nashik","country":"India","iso":"IND","lat":19.9973,"lon":73.791,"pop":1486053,"capital":false},{"name":"Taizhou","country":"China","iso":"CHN","lat":28.6627,"lon":121.4331,"pop":1485502,"capital":false},{"name":"Asunción","country":"Paraguay","iso":"PRY","lat":-25.2865,"lon":-57.647,"pop":1482200,"capital":true},{"name":"Yiwu","country":"China","iso":"CHN","lat":29.3151,"lon":120.0768,"pop":1481384,"capital":false},{"name":"Zapopan","country":"Mexico","iso":"MEX","lat":20.7211,"lon":-103.3874,"pop":1476491,"capital":false},{"name":"Daejeon","country":"South Korea","iso":"KOR","lat":36.3491,"lon":127.3849,"pop":1470336,"capital":false},{"name":"Adelaide","country":"Australia","iso":"AUS","lat":-34.9287,"lon":138.5986,"pop":1469163,"capital":false},{"name":"Quanzhou","country":"China","iso":"CHN","lat":24.9139,"lon":118.5858,"pop":1469157,"capital":false},{"name":"Madurai","country":"India","iso":"IND","lat":9.919,"lon":78.1195,"pop":1465625,"capital":false},{"name":"Jinhua","country":"China","iso":"CHN","lat":29.1068,"lon":119.6442,"pop":1463990,"capital":false},{"name":"Kyoto","country":"Japan","iso":"JPN","lat":35.0211,"lon":135.7539,"pop":1463723,"capital":false},{"name":"Cixi","country":"China","iso":"CHN","lat":30.1764,"lon":121.2457,"pop":1457510,"capital":false},{"name":"Changde","country":"China","iso":"CHN","lat":29.0321,"lon":111.6984,"pop":1457419,"capital":false},{"name":"Kuala Lumpur","country":"Malaysia","iso":"MYS","lat":3.1412,"lon":101.6865,"pop":1453975,"capital":true},{"name":"Kaifeng","country":"China","iso":"CHN","lat":34.7986,"lon":114.3074,"pop":1451741,"capital":false},{"name":"Anshan","country":"China","iso":"CHN","lat":41.1236,"lon":122.99,"pop":1450000,"capital":false},{"name":"Karaj","country":"Iran","iso":"IRN","lat":35.8327,"lon":50.9915,"pop":1448075,"capital":false},{"name":"Kathmandu","country":"Nepal","iso":"NPL","lat":27.7017,"lon":85.3206,"pop":1442271,"capital":true},{"name":"Baoji","country":"China","iso":"CHN","lat":34.3678,"lon":107.2371,"pop":1437802,"capital":false},{"name":"Suqian","country":"China","iso":"CHN","lat":33.9492,"lon":118.2958,"pop":1437685,"capital":false},{"name":"Liuzhou","country":"China","iso":"CHN","lat":24.3241,"lon":109.407,"pop":1436599,"capital":false},{"name":"Tirunelveli","country":"India","iso":"IND","lat":8.7274,"lon":77.6838,"pop":1435844,"capital":false},{"name":"Kayseri","country":"Turkey","iso":"TUR","lat":38.7322,"lon":35.4853,"pop":1434357,"capital":false},{"name":"Kharkiv","country":"Ukraine","iso":"UKR","lat":49.9818,"lon":36.2548,"pop":1433886,"capital":false},{"name":"Konya","country":"Turkey","iso":"TUR","lat":37.8714,"lon":32.4846,"pop":1433861,"capital":false},{"name":"Zhangjiagang","country":"China","iso":"CHN","lat":31.865,"lon":120.5389,"pop":1432044,"capital":false},{"name":"Agra","country":"India","iso":"IND","lat":27.1833,"lon":78.0167,"pop":1430055,"capital":false},{"name":"Tabriz","country":"Iran","iso":"IRN","lat":38.08,"lon":46.2919,"pop":1424641,"capital":false},{"name":"Makassar","country":"Indonesia","iso":"IDN","lat":-5.1486,"lon":119.4319,"pop":1423877,"capital":false},{"name":"Jinjiang","country":"China","iso":"CHN","lat":24.8198,"lon":118.5742,"pop":1416151,"capital":false},{"name":"Faridabad","country":"India","iso":"IND","lat":28.4112,"lon":77.3132,"pop":1414050,"capital":false},{"name":"Bozhou","country":"China","iso":"CHN","lat":33.8772,"lon":115.7703,"pop":1409436,"capital":false},{"name":"Qujing","country":"China","iso":"CHN","lat":25.4833,"lon":103.7833,"pop":1408500,"capital":false},{"name":"South Tangerang","country":"Indonesia","iso":"IDN","lat":-6.2886,"lon":106.7179,"pop":1404785,"capital":false},{"name":"San Diego","country":"United States","iso":"USA","lat":32.7157,"lon":-117.1647,"pop":1404452,"capital":false},{"name":"Zhanjiang","country":"China","iso":"CHN","lat":21.2339,"lon":110.3875,"pop":1400709,"capital":false},{"name":"Fushun","country":"China","iso":"CHN","lat":41.8867,"lon":123.9436,"pop":1400646,"capital":false},{"name":"Gwangju","country":"South Korea","iso":"KOR","lat":35.1547,"lon":126.9156,"pop":1398538,"capital":false},{"name":"Rājkot","country":"India","iso":"IND","lat":22.2916,"lon":70.7932,"pop":1390640,"capital":false},{"name":"Luoyang","country":"China","iso":"CHN","lat":34.6735,"lon":112.4368,"pop":1390581,"capital":false},{"name":"Guadalajara","country":"Mexico","iso":"MEX","lat":20.6774,"lon":-103.3475,"pop":1385629,"capital":false},{"name":"The Bronx","country":"United States","iso":"USA","lat":40.8499,"lon":-73.8664,"pop":1385108,"capital":false},{"name":"Guankou","country":"China","iso":"CHN","lat":28.1586,"lon":113.6271,"pop":1380000,"capital":false},{"name":"Huế","country":"Vietnam","iso":"VNM","lat":16.4619,"lon":107.5955,"pop":1380000,"capital":false},{"name":"Milan","country":"Italy","iso":"ITA","lat":45.4643,"lon":9.1895,"pop":1371498,"capital":false},{"name":"Najafgarh","country":"India","iso":"IND","lat":28.6092,"lon":76.9798,"pop":1365000,"capital":false},{"name":"N'Djamena","country":"Chad","iso":"TCD","lat":12.1067,"lon":15.0444,"pop":1359526,"capital":true},{"name":"Handan","country":"China","iso":"CHN","lat":36.61,"lon":114.4876,"pop":1358318,"capital":false},{"name":"Bannu","country":"Pakistan","iso":"PAK","lat":32.9853,"lon":70.604,"pop":1357890,"capital":false},{"name":"Yichang","country":"China","iso":"CHN","lat":30.7144,"lon":111.2847,"pop":1350150,"capital":false},{"name":"Antananarivo","country":"Madagascar","iso":"MDG","lat":-18.9137,"lon":47.5361,"pop":1349501,"capital":true},{"name":"Heze","country":"China","iso":"CHN","lat":35.2393,"lon":115.4736,"pop":1346717,"capital":false},{"name":"Abobo","country":"Ivory Coast","iso":"CIV","lat":5.4161,"lon":-4.0159,"pop":1340083,"capital":false},{"name":"Jamshedpur","country":"India","iso":"IND","lat":22.8028,"lon":86.1855,"pop":1339438,"capital":false},{"name":"Douala","country":"Cameroon","iso":"CMR","lat":4.0483,"lon":9.7043,"pop":1338082,"capital":false},{"name":"Antalya","country":"Turkey","iso":"TUR","lat":36.9081,"lon":30.6956,"pop":1335002,"capital":false},{"name":"Basrah","country":"Iraq","iso":"IRQ","lat":30.5085,"lon":47.7804,"pop":1326564,"capital":false},{"name":"Dallas","country":"United States","iso":"USA","lat":32.7831,"lon":-96.8067,"pop":1326087,"capital":false},{"name":"Saitama","country":"Japan","iso":"JPN","lat":35.9081,"lon":139.6566,"pop":1324854,"capital":false},{"name":"Gorakhpur","country":"India","iso":"IND","lat":29.4477,"lon":75.6721,"pop":1324570,"capital":false},{"name":"Niamey","country":"Niger","iso":"NER","lat":13.5137,"lon":2.1098,"pop":1323691,"capital":true},{"name":"Liupanshui","country":"China","iso":"CHN","lat":26.5944,"lon":104.8333,"pop":1320825,"capital":false},{"name":"Taguig","country":"Philippines","iso":"PHL","lat":14.5243,"lon":121.0792,"pop":1308085,"capital":false},{"name":"Maoming","country":"China","iso":"CHN","lat":21.6663,"lon":110.9136,"pop":1307802,"capital":false},{"name":"Calgary","country":"Canada","iso":"CAN","lat":51.0501,"lon":-114.0853,"pop":1306784,"capital":false},{"name":"Tripoli","country":"Libya","iso":"LBY","lat":32.8874,"lon":13.1873,"pop":1302947,"capital":true},{"name":"Callao","country":"Peru","iso":"PER","lat":-12.0516,"lon":-77.1345,"pop":1300000,"capital":false},{"name":"Madinah","country":"Saudi Arabia","iso":"SAU","lat":24.4686,"lon":39.6142,"pop":1300000,"capital":false},{"name":"Yaoundé","country":"Cameroon","iso":"CMR","lat":3.8667,"lon":11.5167,"pop":1299369,"capital":true},{"name":"Qinzhou","country":"China","iso":"CHN","lat":21.9825,"lon":108.6506,"pop":1296300,"capital":false},{"name":"Luohe","country":"China","iso":"CHN","lat":33.5639,"lon":114.0427,"pop":1294974,"capital":false},{"name":"Xiangyang","country":"China","iso":"CHN","lat":32.0422,"lon":112.1448,"pop":1294733,"capital":false},{"name":"Yangjiang","country":"China","iso":"CHN","lat":21.8556,"lon":111.9627,"pop":1292987,"capital":false},{"name":"Yixing","country":"China","iso":"CHN","lat":31.3606,"lon":119.8202,"pop":1285785,"capital":false},{"name":"Pimpri","country":"India","iso":"IND","lat":18.6229,"lon":73.807,"pop":1284606,"capital":false},{"name":"Da Nang","country":"Vietnam","iso":"VNM","lat":16.0678,"lon":108.2208,"pop":1276000,"capital":false},{"name":"Amman","country":"Jordan","iso":"JOR","lat":31.9552,"lon":35.945,"pop":1275857,"capital":true},{"name":"Budta","country":"Philippines","iso":"PHL","lat":7.2042,"lon":124.4397,"pop":1273715,"capital":false},{"name":"Belgrade","country":"Serbia","iso":"SRB","lat":44.804,"lon":20.4651,"pop":1273651,"capital":true},{"name":"Biên Hòa","country":"Vietnam","iso":"VNM","lat":10.9447,"lon":106.8243,"pop":1272235,"capital":false},{"name":"Qingpu","country":"China","iso":"CHN","lat":31.1539,"lon":121.1141,"pop":1271424,"capital":false},{"name":"Montevideo","country":"Uruguay","iso":"URY","lat":-34.9033,"lon":-56.1882,"pop":1270737,"capital":true},{"name":"Xuchang","country":"China","iso":"CHN","lat":34.0319,"lon":113.863,"pop":1265536,"capital":false},{"name":"Kalyān","country":"India","iso":"IND","lat":19.2437,"lon":73.1355,"pop":1262255,"capital":false},{"name":"Zigong","country":"China","iso":"CHN","lat":29.3416,"lon":104.7769,"pop":1262064,"capital":false},{"name":"Munich","country":"Germany","iso":"DEU","lat":48.1374,"lon":11.5755,"pop":1260391,"capital":false},{"name":"Nizhniy Novgorod","country":"Russia","iso":"RUS","lat":56.3287,"lon":44.002,"pop":1259013,"capital":false},{"name":"Jepara","country":"Indonesia","iso":"IDN","lat":-6.5924,"lon":110.671,"pop":1257912,"capital":false},{"name":"Maputo","country":"Mozambique","iso":"MOZ","lat":-25.9655,"lon":32.5832,"pop":1254837,"capital":true},{"name":"Xuzhou","country":"China","iso":"CHN","lat":34.2044,"lon":117.2839,"pop":1253991,"capital":false},{"name":"Dammam","country":"Saudi Arabia","iso":"SAU","lat":26.4344,"lon":50.1033,"pop":1252523,"capital":false},{"name":"Ra’s Bayrūt","country":"Lebanon","iso":"LBN","lat":33.9,"lon":35.4833,"pop":1251739,"capital":false},{"name":"Neijiang","country":"China","iso":"CHN","lat":29.5835,"lon":105.0622,"pop":1251095,"capital":false},{"name":"Shiraz","country":"Iran","iso":"IRN","lat":29.6103,"lon":52.5311,"pop":1249942,"capital":false},{"name":"Heshan","country":"China","iso":"CHN","lat":28.5694,"lon":112.3473,"pop":1249807,"capital":false},{"name":"Dombivali","country":"India","iso":"IND","lat":19.2167,"lon":73.0833,"pop":1247327,"capital":false},{"name":"Kananga","country":"Democratic Republic of the Congo","iso":"COD","lat":-5.8962,"lon":22.4166,"pop":1247168,"capital":false},{"name":"Kazan","country":"Russia","iso":"RUS","lat":55.7887,"lon":49.1221,"pop":1243500,"capital":false},{"name":"Jining","country":"China","iso":"CHN","lat":35.405,"lon":116.5814,"pop":1241012,"capital":false},{"name":"Barquisimeto","country":"Venezuela","iso":"VEN","lat":10.0647,"lon":-69.357,"pop":1240714,"capital":false},{"name":"Shubrā al Khaymah","country":"Egypt","iso":"EGY","lat":30.1251,"lon":31.2505,"pop":1240289,"capital":false},{"name":"Putuo","country":"China","iso":"CHN","lat":31.251,"lon":121.3897,"pop":1239100,"capital":false},{"name":"Port-au-Prince","country":"Haiti","iso":"HTI","lat":18.5435,"lon":-72.3388,"pop":1234742,"capital":true},{"name":"Xinyang","country":"China","iso":"CHN","lat":32.1228,"lon":114.0656,"pop":1230042,"capital":false},{"name":"Liaocheng","country":"China","iso":"CHN","lat":36.4506,"lon":116.0025,"pop":1229768,"capital":false},{"name":"Jinzhong","country":"China","iso":"CHN","lat":37.684,"lon":112.7547,"pop":1226617,"capital":false},{"name":"Meerut","country":"India","iso":"IND","lat":28.98,"lon":77.7064,"pop":1223184,"capital":false},{"name":"Virār","country":"India","iso":"IND","lat":19.4559,"lon":72.8114,"pop":1222390,"capital":false},{"name":"Nowrangapur","country":"India","iso":"IND","lat":19.2311,"lon":82.5483,"pop":1220946,"capital":false},{"name":"Karbala","country":"Iraq","iso":"IRQ","lat":32.616,"lon":44.0249,"pop":1218732,"capital":false},{"name":"Changzhi","country":"China","iso":"CHN","lat":36.1839,"lon":113.1053,"pop":1214940,"capital":false},{"name":"Tianshui","country":"China","iso":"CHN","lat":34.5795,"lon":105.7424,"pop":1212791,"capital":false},{"name":"Yangpu","country":"China","iso":"CHN","lat":31.2619,"lon":121.519,"pop":1210800,"capital":false},{"name":"Mombasa","country":"Kenya","iso":"KEN","lat":-4.0547,"lon":39.6636,"pop":1208333,"capital":false},{"name":"Mandalay","country":"Myanmar","iso":"MMR","lat":21.9747,"lon":96.0836,"pop":1208099,"capital":false},{"name":"Srinagar","country":"India","iso":"IND","lat":34.0857,"lon":74.8056,"pop":1206419,"capital":false},{"name":"Barranquilla","country":"Colombia","iso":"COL","lat":10.9685,"lon":-74.7813,"pop":1206319,"capital":false},{"name":"Chelyabinsk","country":"Russia","iso":"RUS","lat":55.1611,"lon":61.4288,"pop":1202371,"capital":false},{"name":"Mérida","country":"Mexico","iso":"MEX","lat":20.967,"lon":-89.6232,"pop":1201000,"capital":false},{"name":"Hiroshima","country":"Japan","iso":"JPN","lat":34.4,"lon":132.45,"pop":1200754,"capital":false},{"name":"Santiago de los Caballeros","country":"Dominican Republic","iso":"DOM","lat":19.4504,"lon":-70.6908,"pop":1200000,"capital":false},{"name":"Shymkent","country":"Kazakhstan","iso":"KAZ","lat":42.3099,"lon":69.6004,"pop":1200000,"capital":false},{"name":"Weinan","country":"China","iso":"CHN","lat":34.5035,"lon":109.5089,"pop":1199290,"capital":false},{"name":"Ghāziābād","country":"India","iso":"IND","lat":28.6654,"lon":77.4392,"pop":1199191,"capital":false},{"name":"Matola","country":"Mozambique","iso":"MOZ","lat":-25.9622,"lon":32.4589,"pop":1198988,"capital":false},{"name":"Dhanbad","country":"India","iso":"IND","lat":23.7976,"lon":86.4299,"pop":1196214,"capital":false},{"name":"Hong Kong Island","country":"Hong Kong","iso":"HKG","lat":22.263,"lon":114.1842,"pop":1195529,"capital":false},{"name":"Fes","country":"Morocco","iso":"MAR","lat":34.0331,"lon":-5.0003,"pop":1191905,"capital":false},{"name":"Suwon","country":"South Korea","iso":"KOR","lat":37.2911,"lon":127.0089,"pop":1191063,"capital":false},{"name":"Gustavo Adolfo Madero","country":"Mexico","iso":"MEX","lat":19.4939,"lon":-99.1107,"pop":1185772,"capital":false},{"name":"Nouakchott","country":"Mauritania","iso":"MRT","lat":18.0858,"lon":-15.9785,"pop":1184530,"capital":true},{"name":"Kisangani","country":"Democratic Republic of the Congo","iso":"COD","lat":0.5153,"lon":25.191,"pop":1181788,"capital":false},{"name":"Jiaxing","country":"China","iso":"CHN","lat":30.7522,"lon":120.75,"pop":1180000,"capital":false},{"name":"Aurangabad","country":"India","iso":"IND","lat":19.8776,"lon":75.3423,"pop":1175116,"capital":false},{"name":"Omsk","country":"Russia","iso":"RUS","lat":54.9924,"lon":73.3686,"pop":1172070,"capital":false},{"name":"Guarulhos","country":"Brazil","iso":"BRA","lat":-23.4628,"lon":-46.5333,"pop":1169577,"capital":false},{"name":"Bandar Lampung","country":"Indonesia","iso":"IDN","lat":-5.4292,"lon":105.2611,"pop":1166066,"capital":false},{"name":"Prague","country":"Czechia","iso":"CZE","lat":50.088,"lon":14.4208,"pop":1165581,"capital":true},{"name":"Varanasi","country":"India","iso":"IND","lat":25.3167,"lon":83.0104,"pop":1164404,"capital":false},{"name":"Batam","country":"Indonesia","iso":"IDN","lat":1.1494,"lon":104.0249,"pop":1164352,"capital":false},{"name":"Jiujiang","country":"China","iso":"CHN","lat":29.7048,"lon":116.0021,"pop":1164268,"capital":false},{"name":"Samara","country":"Russia","iso":"RUS","lat":53.2077,"lon":50.1355,"pop":1163399,"capital":false},{"name":"Aba","country":"Nigeria","iso":"NGA","lat":5.1066,"lon":7.3667,"pop":1160000,"capital":false},{"name":"Amritsar","country":"India","iso":"IND","lat":31.6223,"lon":74.8753,"pop":1159227,"capital":false},{"name":"Birmingham","country":"United Kingdom","iso":"GBR","lat":52.4814,"lon":-1.8998,"pop":1157603,"capital":false},{"name":"Copenhagen","country":"Denmark","iso":"DNK","lat":55.6759,"lon":12.5655,"pop":1153615,"capital":true},{"name":"Sofia","country":"Bulgaria","iso":"BGR","lat":42.6975,"lon":23.3242,"pop":1152556,"capital":true},{"name":"Anyang","country":"China","iso":"CHN","lat":36.096,"lon":114.3828,"pop":1146839,"capital":false},{"name":"Yerevan","country":"Armenia","iso":"ARM","lat":40.1777,"lon":44.5126,"pop":1144700,"capital":true},{"name":"Luohu District","country":"China","iso":"CHN","lat":22.5472,"lon":114.1315,"pop":1143801,"capital":false},{"name":"Vijayawada","country":"India","iso":"IND","lat":16.5075,"lon":80.6466,"pop":1143232,"capital":false},{"name":"Fengxiang","country":"China","iso":"CHN","lat":30.8584,"lon":121.4678,"pop":1140872,"capital":false},{"name":"Bijie","country":"China","iso":"CHN","lat":27.3019,"lon":105.2863,"pop":1137383,"capital":false},{"name":"Monterrey","country":"Mexico","iso":"MEX","lat":25.6843,"lon":-100.3172,"pop":1135512,"capital":false},{"name":"Kigali","country":"Rwanda","iso":"RWA","lat":-1.9499,"lon":30.0589,"pop":1132686,"capital":true},{"name":"Rostov-on-Don","country":"Russia","iso":"RUS","lat":47.22,"lon":39.7077,"pop":1130305,"capital":false},{"name":"Zhuzhou","country":"China","iso":"CHN","lat":27.8333,"lon":113.15,"pop":1129687,"capital":false},{"name":"Bogor","country":"Indonesia","iso":"IDN","lat":-6.5944,"lon":106.7892,"pop":1127408,"capital":false},{"name":"Malingao","country":"Philippines","iso":"PHL","lat":7.1608,"lon":124.475,"pop":1121974,"capital":false},{"name":"Touba","country":"Senegal","iso":"SEN","lat":14.8623,"lon":-15.8753,"pop":1120824,"capital":false},{"name":"Ufa","country":"Russia","iso":"RUS","lat":54.7431,"lon":55.9678,"pop":1120547,"capital":false},{"name":"Ranchi","country":"India","iso":"IND","lat":23.3432,"lon":85.3094,"pop":1120374,"capital":false},{"name":"Shangrao","country":"China","iso":"CHN","lat":28.4518,"lon":117.9429,"pop":1116486,"capital":false},{"name":"Lilongwe","country":"Malawi","iso":"MWI","lat":-13.9669,"lon":33.7873,"pop":1115815,"capital":true},{"name":"Huaibei","country":"China","iso":"CHN","lat":33.9744,"lon":116.7917,"pop":1113321,"capital":false},{"name":"Maiduguri","country":"Nigeria","iso":"NGA","lat":11.8469,"lon":13.1571,"pop":1110000,"capital":false},{"name":"Xuhui","country":"China","iso":"CHN","lat":31.1959,"lon":121.4471,"pop":1109800,"capital":false},{"name":"Meishan","country":"China","iso":"CHN","lat":30.0439,"lon":103.837,"pop":1107742,"capital":false},{"name":"Mwanza","country":"Tanzania","iso":"TZA","lat":-2.5167,"lon":32.9,"pop":1104521,"capital":false},{"name":"Sendai","country":"Japan","iso":"JPN","lat":38.2667,"lon":140.8667,"pop":1096704,"capital":false},{"name":"Ulsan","country":"South Korea","iso":"KOR","lat":35.5372,"lon":129.3167,"pop":1095014,"capital":false},{"name":"Krasnoyarsk","country":"Russia","iso":"RUS","lat":56.0374,"lon":92.9314,"pop":1090811,"capital":false},{"name":"Fuzhou","country":"China","iso":"CHN","lat":27.96,"lon":116.3333,"pop":1089888,"capital":false},{"name":"Guigang","country":"China","iso":"CHN","lat":23.116,"lon":109.5947,"pop":1086327,"capital":false},{"name":"Pekanbaru","country":"Indonesia","iso":"IDN","lat":0.5167,"lon":101.4417,"pop":1085000,"capital":false},{"name":"Oslo","country":"Norway","iso":"NOR","lat":59.9127,"lon":10.7461,"pop":1082575,"capital":true},{"name":"Jabalpur","country":"India","iso":"IND","lat":23.167,"lon":79.9501,"pop":1081677,"capital":false},{"name":"Ilorin","country":"Nigeria","iso":"NGA","lat":8.4966,"lon":4.5421,"pop":1080000,"capital":false},{"name":"Aden","country":"Yemen","iso":"YEM","lat":12.7796,"lon":45.0385,"pop":1079670,"capital":false},{"name":"Ciudad Nezahualcoyotl","country":"Mexico","iso":"MEX","lat":19.4006,"lon":-99.0148,"pop":1077208,"capital":false},{"name":"Hengyang","country":"China","iso":"CHN","lat":26.8895,"lon":112.6189,"pop":1075516,"capital":false},{"name":"Prayagraj","country":"India","iso":"IND","lat":25.4448,"lon":81.8432,"pop":1073438,"capital":false},{"name":"Visakhapatnam","country":"India","iso":"IND","lat":17.6801,"lon":83.2016,"pop":1063178,"capital":false},{"name":"Goyang-si","country":"South Korea","iso":"KOR","lat":37.6564,"lon":126.835,"pop":1061752,"capital":false},{"name":"Yulin","country":"China","iso":"CHN","lat":22.6305,"lon":110.1469,"pop":1056743,"capital":false},{"name":"Jodhpur","country":"India","iso":"IND","lat":26.2684,"lon":73.0059,"pop":1056191,"capital":false},{"name":"Gwalior","country":"India","iso":"IND","lat":26.2298,"lon":78.1734,"pop":1054420,"capital":false},{"name":"Jingzhou","country":"China","iso":"CHN","lat":30.3503,"lon":112.1903,"pop":1052282,"capital":false},{"name":"Gqeberha","country":"South Africa","iso":"ZAF","lat":-33.9611,"lon":25.6149,"pop":1050078,"capital":false},{"name":"Tbilisi","country":"Georgia","iso":"GEO","lat":41.6914,"lon":44.8341,"pop":1049498,"capital":true},{"name":"Voronezh","country":"Russia","iso":"RUS","lat":51.6683,"lon":39.192,"pop":1047549,"capital":false},{"name":"Xinxiang","country":"China","iso":"CHN","lat":35.1903,"lon":113.8015,"pop":1047088,"capital":false},{"name":"Yichun","country":"China","iso":"CHN","lat":27.8333,"lon":114.4,"pop":1045952,"capital":false},{"name":"Sokoto","country":"Nigeria","iso":"NGA","lat":13.0627,"lon":5.2432,"pop":1040000,"capital":false},{"name":"Jos","country":"Nigeria","iso":"NGA","lat":9.9285,"lon":8.8921,"pop":1040000,"capital":false},{"name":"Tangier","country":"Morocco","iso":"MAR","lat":35.7673,"lon":-5.7998,"pop":1035141,"capital":false},{"name":"Teni","country":"India","iso":"IND","lat":10.0112,"lon":77.4777,"pop":1034724,"capital":false},{"name":"Xianyang","country":"China","iso":"CHN","lat":34.3378,"lon":108.7026,"pop":1034081,"capital":false},{"name":"Mexicali","country":"Mexico","iso":"MEX","lat":32.6278,"lon":-115.4545,"pop":1032686,"capital":false},{"name":"Pointe-Noire","country":"Republic of the Congo","iso":"COG","lat":-4.7761,"lon":11.8635,"pop":1032000,"capital":false},{"name":"Maceió","country":"Brazil","iso":"BRA","lat":-9.6658,"lon":-35.7353,"pop":1031597,"capital":false},{"name":"Campinas","country":"Brazil","iso":"BRA","lat":-22.9056,"lon":-47.0608,"pop":1031554,"capital":false},{"name":"Sanya","country":"China","iso":"CHN","lat":18.2544,"lon":109.5095,"pop":1031396,"capital":false},{"name":"Rangpur","country":"Bangladesh","iso":"BGD","lat":25.7466,"lon":89.2517,"pop":1031388,"capital":false},{"name":"Kirkuk","country":"Iraq","iso":"IRQ","lat":35.4681,"lon":44.3922,"pop":1031000,"capital":false},{"name":"Comilla","country":"Bangladesh","iso":"BGD","lat":23.4619,"lon":91.185,"pop":1030000,"capital":false},{"name":"Shaoguan","country":"China","iso":"CHN","lat":24.8,"lon":113.5833,"pop":1028460,"capital":false},{"name":"Howrah","country":"India","iso":"IND","lat":22.5769,"lon":88.3186,"pop":1027672,"capital":false},{"name":"Raipur","country":"India","iso":"IND","lat":21.2333,"lon":81.6333,"pop":1027264,"capital":false},{"name":"Changwon","country":"South Korea","iso":"KOR","lat":35.2281,"lon":128.6811,"pop":1025702,"capital":false},{"name":"Longyan","country":"China","iso":"CHN","lat":25.0749,"lon":117.0178,"pop":1025087,"capital":false},{"name":"Dublin","country":"Ireland","iso":"IRL","lat":53.3331,"lon":-6.2489,"pop":1024027,"capital":true},{"name":"Tiruchirappalli","country":"India","iso":"IND","lat":10.8155,"lon":78.6965,"pop":1022518,"capital":false},{"name":"Yongzhou","country":"China","iso":"CHN","lat":26.4239,"lon":111.6131,"pop":1020715,"capital":false},{"name":"Brussels","country":"Belgium","iso":"BEL","lat":50.8505,"lon":4.3488,"pop":1019022,"capital":true},{"name":"Zamboanga","country":"Philippines","iso":"PHL","lat":6.9103,"lon":122.0739,"pop":1018849,"capital":false},{"name":"Ottawa","country":"Canada","iso":"CAN","lat":45.4112,"lon":-75.6981,"pop":1017449,"capital":true},{"name":"Huzhou","country":"China","iso":"CHN","lat":30.8703,"lon":120.0933,"pop":1015937,"capital":false},{"name":"Odesa","country":"Ukraine","iso":"UKR","lat":46.4857,"lon":30.7438,"pop":1015826,"capital":false},{"name":"Volgograd","country":"Russia","iso":"RUS","lat":48.7138,"lon":44.4976,"pop":1013533,"capital":false},{"name":"Khartoum North","country":"Sudan","iso":"SDN","lat":15.6493,"lon":32.5346,"pop":1012211,"capital":false},{"name":"Edmonton","country":"Canada","iso":"CAN","lat":53.5501,"lon":-113.4687,"pop":1010899,"capital":false},{"name":"Wuwei","country":"China","iso":"CHN","lat":37.9267,"lon":102.632,"pop":1010295,"capital":false},{"name":"Jacksonville","country":"United States","iso":"USA","lat":30.3322,"lon":-81.6556,"pop":1009833,"capital":false},{"name":"Arequipa","country":"Peru","iso":"PER","lat":-16.399,"lon":-71.5375,"pop":1008290,"capital":false},{"name":"Fort Worth","country":"United States","iso":"USA","lat":32.7254,"lon":-97.3208,"pop":1008106,"capital":false},{"name":"Hanzhong","country":"China","iso":"CHN","lat":33.0751,"lon":107.0221,"pop":1006557,"capital":false},{"name":"Hezhou","country":"China","iso":"CHN","lat":24.4036,"lon":111.5668,"pop":1005490,"capital":false},{"name":"Pest","country":"Hungary","iso":"HUN","lat":47.5,"lon":19.0833,"pop":1001748,"capital":false},{"name":"Kota","country":"India","iso":"IND","lat":25.1825,"lon":75.8391,"pop":1001694,"capital":false},{"name":"Zhu Cheng City","country":"China","iso":"CHN","lat":35.995,"lon":119.4026,"pop":1000000,"capital":false},{"name":"Shivaji Nagar","country":"India","iso":"IND","lat":18.5302,"lon":73.8526,"pop":1000000,"capital":false},{"name":"Dongying","country":"China","iso":"CHN","lat":37.4627,"lon":118.4917,"pop":998968,"capital":false},{"name":"Luzhou","country":"China","iso":"CHN","lat":28.8903,"lon":105.4258,"pop":998900,"capital":false},{"name":"San Jose","country":"United States","iso":"USA","lat":37.3394,"lon":-121.895,"pop":997368,"capital":false},{"name":"Sholapur","country":"India","iso":"IND","lat":17.6715,"lon":75.9104,"pop":997281,"capital":false},{"name":"Marrakesh","country":"Morocco","iso":"MAR","lat":31.6342,"lon":-7.9999,"pop":995871,"capital":false},{"name":"Guatemala City","country":"Guatemala","iso":"GTM","lat":14.6407,"lon":-90.5133,"pop":994938,"capital":true},{"name":"Meizhou","country":"China","iso":"CHN","lat":24.2886,"lon":116.1177,"pop":992351,"capital":false},{"name":"Yueyang","country":"China","iso":"CHN","lat":29.3746,"lon":113.0948,"pop":991465,"capital":false},{"name":"Laiwu","country":"China","iso":"CHN","lat":36.1928,"lon":117.6569,"pop":989535,"capital":false},{"name":"Benxi","country":"China","iso":"CHN","lat":41.2886,"lon":123.765,"pop":987717,"capital":false},{"name":"Perm","country":"Russia","iso":"RUS","lat":58.0105,"lon":56.2502,"pop":982419,"capital":false},{"name":"Zaria","country":"Nigeria","iso":"NGA","lat":11.1113,"lon":7.7227,"pop":980000,"capital":false},{"name":"Chiba","country":"Japan","iso":"JPN","lat":35.6,"lon":140.1167,"pop":979768,"capital":false},{"name":"Pingdingshan","country":"China","iso":"CHN","lat":33.7309,"lon":113.3155,"pop":979130,"capital":false},{"name":"Ciudad Guayana","country":"Venezuela","iso":"VEN","lat":8.3512,"lon":-62.641,"pop":978202,"capital":false},{"name":"Sargodha","country":"Pakistan","iso":"PAK","lat":32.0859,"lon":72.6742,"pop":975886,"capital":false},{"name":"Austin","country":"United States","iso":"USA","lat":30.2672,"lon":-97.7431,"pop":974447,"capital":false},{"name":"Managua","country":"Nicaragua","iso":"NIC","lat":12.1328,"lon":-86.2504,"pop":973087,"capital":true},{"name":"Bengbu","country":"China","iso":"CHN","lat":32.9408,"lon":117.3608,"pop":972784,"capital":false},{"name":"Salé","country":"Morocco","iso":"MAR","lat":34.0531,"lon":-6.7985,"pop":972299,"capital":false},{"name":"Jerusalem","country":"Israel","iso":"ISR","lat":31.769,"lon":35.2163,"pop":971800,"capital":false},{"name":"Chandigarh","country":"India","iso":"IND","lat":30.7363,"lon":76.7884,"pop":970602,"capital":false},{"name":"Dnipro","country":"Ukraine","iso":"UKR","lat":48.4666,"lon":35.0407,"pop":968502,"capital":false},{"name":"Cebu City","country":"Philippines","iso":"PHL","lat":10.3167,"lon":123.8907,"pop":965332,"capital":false},{"name":"Sanhe","country":"China","iso":"CHN","lat":39.9805,"lon":117.0689,"pop":965075,"capital":false},{"name":"Köln","country":"Germany","iso":"DEU","lat":50.9333,"lon":6.95,"pop":963395,"capital":false},{"name":"Tiruppur","country":"India","iso":"IND","lat":11.1154,"lon":77.3546,"pop":963173,"capital":false},{"name":"Guwahati","country":"India","iso":"IND","lat":26.1844,"lon":91.7458,"pop":962334,"capital":false},{"name":"Xiangtan","country":"China","iso":"CHN","lat":27.85,"lon":112.9,"pop":959303,"capital":false},{"name":"Linfen","country":"China","iso":"CHN","lat":36.0889,"lon":111.5189,"pop":959198,"capital":false},{"name":"Victoria","country":"Hong Kong","iso":"HKG","lat":22.2875,"lon":114.1442,"pop":956800,"capital":false},{"name":"Zhenjiang","country":"China","iso":"CHN","lat":32.2109,"lon":119.4551,"pop":950516,"capital":false},{"name":"Enugu","country":"Nigeria","iso":"NGA","lat":6.4413,"lon":7.4988,"pop":950000,"capital":false},{"name":"Rosario","country":"Argentina","iso":"ARG","lat":-32.9468,"lon":-60.6393,"pop":948312,"capital":false},{"name":"Sulţānah","country":"Saudi Arabia","iso":"SAU","lat":24.4926,"lon":39.5857,"pop":946697,"capital":false},{"name":"Huludao","country":"China","iso":"CHN","lat":40.7524,"lon":120.8355,"pop":944495,"capital":false},{"name":"Hubballi","country":"India","iso":"IND","lat":15.3478,"lon":75.1338,"pop":943788,"capital":false},{"name":"Kitakyushu","country":"Japan","iso":"JPN","lat":33.8518,"lon":130.8503,"pop":940978,"capital":false},{"name":"Taiz","country":"Yemen","iso":"YEM","lat":13.5795,"lon":44.0209,"pop":940600,"capital":false},{"name":"Setagaya","country":"Japan","iso":"JPN","lat":35.6419,"lon":139.6472,"pop":940071,"capital":false},{"name":"Kingston","country":"Jamaica","iso":"JAM","lat":17.997,"lon":-76.7936,"pop":937700,"capital":true},{"name":"Jing’an","country":"China","iso":"CHN","lat":31.22,"lon":121.4158,"pop":936500,"capital":false},{"name":"Baoshan","country":"China","iso":"CHN","lat":25.1163,"lon":99.1637,"pop":935618,"capital":false},{"name":"Rui’an","country":"China","iso":"CHN","lat":27.7761,"lon":120.6586,"pop":927383,"capital":false},{"name":"Chihuahua","country":"Mexico","iso":"MEX","lat":28.6353,"lon":-106.0889,"pop":925762,"capital":false},{"name":"Nay Pyi Taw","country":"Myanmar","iso":"MMR","lat":19.745,"lon":96.1297,"pop":925000,"capital":true},{"name":"Eskişehir","country":"Turkey","iso":"TUR","lat":39.7767,"lon":30.5206,"pop":921630,"capital":false},{"name":"Mysuru","country":"India","iso":"IND","lat":12.2979,"lon":76.6393,"pop":920550,"capital":false},{"name":"Trujillo","country":"Peru","iso":"PER","lat":-8.116,"lon":-79.03,"pop":919899,"capital":false},{"name":"Salem","country":"India","iso":"IND","lat":11.6538,"lon":78.1554,"pop":917414,"capital":false},{"name":"São Luís","country":"Brazil","iso":"BRA","lat":-2.5297,"lon":-44.3028,"pop":917237,"capital":false},{"name":"Seongnam-si","country":"South Korea","iso":"KOR","lat":37.4386,"lon":127.1378,"pop":914832,"capital":false},{"name":"Cartagena","country":"Colombia","iso":"COL","lat":10.3982,"lon":-75.4933,"pop":914552,"capital":false},{"name":"Antipolo","country":"Philippines","iso":"PHL","lat":14.6258,"lon":121.1225,"pop":913712,"capital":false},{"name":"Columbus","country":"United States","iso":"USA","lat":39.9612,"lon":-82.9988,"pop":913175,"capital":false},{"name":"Sialkot","country":"Pakistan","iso":"PAK","lat":32.4927,"lon":74.5313,"pop":911817,"capital":false},{"name":"Charlotte","country":"United States","iso":"USA","lat":35.2271,"lon":-80.8431,"pop":911311,"capital":false},{"name":"Laibin","country":"China","iso":"CHN","lat":23.7474,"lon":109.2222,"pop":910282,"capital":false},{"name":"Warri","country":"Nigeria","iso":"NGA","lat":5.5174,"lon":5.7501,"pop":910000,"capital":false},{"name":"Naples","country":"Italy","iso":"ITA","lat":40.8522,"lon":14.2681,"pop":909048,"capital":false},{"name":"Padang","country":"Indonesia","iso":"IDN","lat":-0.9492,"lon":100.3543,"pop":909040,"capital":false},{"name":"Xiaogan","country":"China","iso":"CHN","lat":30.9269,"lon":113.9222,"pop":908266,"capital":false},{"name":"Campo Grande","country":"Brazil","iso":"BRA","lat":-20.4428,"lon":-54.6464,"pop":906092,"capital":false},{"name":"Ziyang","country":"China","iso":"CHN","lat":30.1211,"lon":104.6481,"pop":905729,"capital":false},{"name":"Bobo-Dioulasso","country":"Burkina Faso","iso":"BFA","lat":11.1806,"lon":-4.2949,"pop":904920,"capital":false},{"name":"Bahawalpur","country":"Pakistan","iso":"PAK","lat":29.3978,"lon":71.6752,"pop":903795,"capital":false},{"name":"Quzhou","country":"China","iso":"CHN","lat":28.9594,"lon":118.8686,"pop":902767,"capital":false},{"name":"Blantyre","country":"Malawi","iso":"MWI","lat":-15.785,"lon":35.0085,"pop":902588,"capital":false},{"name":"Donetsk","country":"Ukraine","iso":"UKR","lat":48.023,"lon":37.8022,"pop":901645,"capital":false},{"name":"Abū Ghurayb","country":"Iraq","iso":"IRQ","lat":33.3056,"lon":44.1848,"pop":900000,"capital":false},{"name":"Qom","country":"Iran","iso":"IRN","lat":34.6401,"lon":50.8764,"pop":900000,"capital":false},{"name":"Bishkek","country":"Kyrgyzstan","iso":"KGZ","lat":42.87,"lon":74.59,"pop":900000,"capital":true},{"name":"Zaozhuang","country":"China","iso":"CHN","lat":34.8647,"lon":117.5542,"pop":899753,"capital":false},{"name":"Krasnodar","country":"Russia","iso":"RUS","lat":45.0453,"lon":38.9818,"pop":899541,"capital":false},{"name":"Natal","country":"Brazil","iso":"BRA","lat":-5.795,"lon":-35.2094,"pop":896708,"capital":false},{"name":"Pingxiang","country":"China","iso":"CHN","lat":27.6167,"lon":113.8535,"pop":893550,"capital":false},{"name":"Cancún","country":"Mexico","iso":"MEX","lat":21.1743,"lon":-86.8466,"pop":888797,"capital":false},{"name":"Indianapolis","country":"United States","iso":"USA","lat":39.7684,"lon":-86.158,"pop":887642,"capital":false},{"name":"Gurugram","country":"India","iso":"IND","lat":28.4601,"lon":77.0263,"pop":886519,"capital":false},{"name":"Bhubaneswar","country":"India","iso":"IND","lat":20.2724,"lon":85.8339,"pop":885363,"capital":false},{"name":"Zhoushan","country":"China","iso":"CHN","lat":29.9887,"lon":122.2049,"pop":882932,"capital":false},{"name":"Qiqihar","country":"China","iso":"CHN","lat":47.3392,"lon":123.9615,"pop":882364,"capital":false},{"name":"Sulaymaniyah","country":"Iraq","iso":"IRQ","lat":35.565,"lon":45.4329,"pop":878146,"capital":false},{"name":"Marseille","country":"France","iso":"FRA","lat":43.297,"lon":5.3811,"pop":877215,"capital":false},{"name":"Puning","country":"China","iso":"CHN","lat":23.3107,"lon":116.1687,"pop":874954,"capital":false},{"name":"Pikine","country":"Senegal","iso":"SEN","lat":14.7646,"lon":-17.3907,"pop":874062,"capital":false},{"name":"Bhiwandi","country":"India","iso":"IND","lat":19.3002,"lon":73.0588,"pop":874032,"capital":false},{"name":"Soshanguve","country":"South Africa","iso":"ZAF","lat":-25.4729,"lon":28.0992,"pop":872309,"capital":false},{"name":"Teresina","country":"Brazil","iso":"BRA","lat":-5.0892,"lon":-42.8019,"pop":871126,"capital":false},{"name":"Ankang","country":"China","iso":"CHN","lat":32.68,"lon":109.0172,"pop":870126,"capital":false},{"name":"Jalandhar","country":"India","iso":"IND","lat":31.3256,"lon":75.5792,"pop":868929,"capital":false},{"name":"Rotterdam","country":"The Netherlands","iso":"NLD","lat":51.9225,"lon":4.4792,"pop":868135,"capital":false},{"name":"Langfang","country":"China","iso":"CHN","lat":39.5208,"lon":116.7147,"pop":868066,"capital":false},{"name":"Jiaozuo","country":"China","iso":"CHN","lat":35.2393,"lon":113.2391,"pop":865413,"capital":false},{"name":"Rohini","country":"India","iso":"IND","lat":28.7432,"lon":77.0678,"pop":860000,"capital":false},{"name":"Wanxian","country":"China","iso":"CHN","lat":30.816,"lon":108.3741,"pop":859662,"capital":false},{"name":"Guang’an","country":"China","iso":"CHN","lat":30.4741,"lon":106.637,"pop":858159,"capital":false},{"name":"Johor Bahru","country":"Malaysia","iso":"MYS","lat":1.4655,"lon":103.7578,"pop":858118,"capital":false},{"name":"Cheongju-si","country":"South Korea","iso":"KOR","lat":36.6372,"lon":127.4897,"pop":853938,"capital":false},{"name":"Pasig City","country":"Philippines","iso":"PHL","lat":14.5869,"lon":121.0614,"pop":853050,"capital":false},{"name":"Kanayannur","country":"India","iso":"IND","lat":9.9667,"lon":76.2667,"pop":851406,"capital":false},{"name":"Tegucigalpa","country":"Honduras","iso":"HND","lat":14.0818,"lon":-87.2068,"pop":850848,"capital":true},{"name":"Bucheon-si","country":"South Korea","iso":"KOR","lat":37.4989,"lon":126.7831,"pop":850731,"capital":false},{"name":"Thanh Hóa","country":"Vietnam","iso":"VNM","lat":19.8,"lon":105.7667,"pop":850000,"capital":false},{"name":"Turin","country":"Italy","iso":"ITA","lat":45.0705,"lon":7.6868,"pop":847287,"capital":false},{"name":"Malang","country":"Indonesia","iso":"IDN","lat":-7.9797,"lon":112.6304,"pop":847182,"capital":false},{"name":"Al Ain City","country":"United Arab Emirates","iso":"ARE","lat":24.1917,"lon":55.7606,"pop":846747,"capital":false},{"name":"Libreville","country":"Gabon","iso":"GAB","lat":0.3924,"lon":9.4536,"pop":846090,"capital":true},{"name":"Saratov","country":"Russia","iso":"RUS","lat":51.5405,"lon":45.9901,"pop":844858,"capital":false},{"name":"Ulan Bator","country":"Mongolia","iso":"MNG","lat":47.9077,"lon":106.8832,"pop":844818,"capital":true},{"name":"Weihai","country":"China","iso":"CHN","lat":37.5091,"lon":122.1136,"pop":844310,"capital":false},{"name":"Takeo","country":"Cambodia","iso":"KHM","lat":10.9908,"lon":104.785,"pop":843931,"capital":false},{"name":"Cochabamba","country":"Bolivia","iso":"BOL","lat":-17.3819,"lon":-66.1599,"pop":841276,"capital":false},{"name":"Ahvaz","country":"Iran","iso":"IRN","lat":31.319,"lon":48.6842,"pop":841145,"capital":false},{"name":"Vientiane","country":"Laos","iso":"LAO","lat":17.9667,"lon":102.6,"pop":840940,"capital":true},{"name":"Zhabei","country":"China","iso":"CHN","lat":31.2586,"lon":121.4597,"pop":840000,"capital":false},{"name":"Xinyu","country":"China","iso":"CHN","lat":27.8043,"lon":114.9334,"pop":839488,"capital":false},{"name":"Pietermaritzburg","country":"South Africa","iso":"ZAF","lat":-29.6168,"lon":30.3928,"pop":839327,"capital":false},{"name":"Yibin","country":"China","iso":"CHN","lat":28.7593,"lon":104.6399,"pop":836340,"capital":false},{"name":"Naucalpan de Juárez","country":"Mexico","iso":"MEX","lat":19.4785,"lon":-99.2396,"pop":834434,"capital":false},{"name":"Kampung Baru Subang","country":"Malaysia","iso":"MYS","lat":3.15,"lon":101.5333,"pop":833571,"capital":false},{"name":"Bouaké","country":"Ivory Coast","iso":"CIV","lat":7.6939,"lon":-5.0303,"pop":832371,"capital":false},{"name":"Samarinda","country":"Indonesia","iso":"IDN","lat":-0.4917,"lon":117.1458,"pop":831460,"capital":false},{"name":"Taicang","country":"China","iso":"CHN","lat":31.4478,"lon":121.0939,"pop":831113,"capital":false},{"name":"San Francisco","country":"United States","iso":"USA","lat":37.7749,"lon":-122.4194,"pop":827526,"capital":false},{"name":"Sakai","country":"Japan","iso":"JPN","lat":34.5822,"lon":135.4665,"pop":826161,"capital":false},{"name":"Valencia","country":"Spain","iso":"ESP","lat":39.4739,"lon":-0.3797,"pop":824340,"capital":false},{"name":"Nova Iguaçu","country":"Brazil","iso":"BRA","lat":-22.7592,"lon":-43.4511,"pop":823302,"capital":false},{"name":"Jinshan","country":"China","iso":"CHN","lat":30.8356,"lon":121.2937,"pop":822776,"capital":false},{"name":"Chenzhou","country":"China","iso":"CHN","lat":25.8,"lon":113.0333,"pop":822534,"capital":false},{"name":"Duque de Caxias","country":"Brazil","iso":"BRA","lat":-22.7856,"lon":-43.3117,"pop":818329,"capital":false},{"name":"João Pessoa","country":"Brazil","iso":"BRA","lat":-7.115,"lon":-34.8631,"pop":817511,"capital":false},{"name":"Bukavu","country":"Democratic Republic of the Congo","iso":"COD","lat":-2.4908,"lon":28.8428,"pop":816811,"capital":false},{"name":"Barcelona","country":"Venezuela","iso":"VEN","lat":10.1384,"lon":-64.6877,"pop":815141,"capital":false},{"name":"Bangui","country":"Central African Republic","iso":"CAF","lat":4.3612,"lon":18.555,"pop":812407,"capital":true},{"name":"Hermosillo","country":"Mexico","iso":"MEX","lat":29.0887,"lon":-110.9668,"pop":812229,"capital":false},{"name":"Bhayandar","country":"India","iso":"IND","lat":19.3016,"lon":72.8511,"pop":809378,"capital":false},{"name":"Culiacán","country":"Mexico","iso":"MEX","lat":24.8021,"lon":-107.3942,"pop":808416,"capital":false},{"name":"Petaling Jaya","country":"Malaysia","iso":"MYS","lat":3.1073,"lon":101.6067,"pop":807879,"capital":false},{"name":"Malatya","country":"Turkey","iso":"TUR","lat":38.3502,"lon":38.3167,"pop":806156,"capital":false},{"name":"Anqing","country":"China","iso":"CHN","lat":30.5137,"lon":117.0472,"pop":804493,"capital":false},{"name":"Kraków","country":"Poland","iso":"POL","lat":50.0614,"lon":19.9366,"pop":804237,"capital":false},{"name":"Oran","country":"Algeria","iso":"DZA","lat":35.6991,"lon":-0.6359,"pop":803329,"capital":false},{"name":"Freetown","country":"Sierra Leone","iso":"SLE","lat":8.4871,"lon":-13.2356,"pop":802639,"capital":true},{"name":"San Pedro Sula","country":"Honduras","iso":"HND","lat":15.5059,"lon":-88.0259,"pop":801259,"capital":false},{"name":"Narela","country":"India","iso":"IND","lat":28.8527,"lon":77.0929,"pop":800000,"capital":false},{"name":"Xingtai","country":"China","iso":"CHN","lat":37.0622,"lon":114.4927,"pop":798770,"capital":false},{"name":"Niigata","country":"Japan","iso":"JPN","lat":37.9226,"lon":139.0413,"pop":797591,"capital":false},{"name":"Muscat","country":"Oman","iso":"OMN","lat":23.5841,"lon":58.4078,"pop":797000,"capital":true},{"name":"Zarqa","country":"Jordan","iso":"JOR","lat":32.0728,"lon":36.088,"pop":792665,"capital":false},{"name":"Çankaya","country":"Turkey","iso":"TUR","lat":39.9179,"lon":32.8627,"pop":792189,"capital":false},{"name":"Hamamatsu","country":"Japan","iso":"JPN","lat":34.7,"lon":137.7333,"pop":791707,"capital":false},{"name":"Kolwezi","country":"Democratic Republic of the Congo","iso":"COD","lat":-10.7148,"lon":25.4667,"pop":790248,"capital":false},{"name":"Vinh","country":"Vietnam","iso":"VNM","lat":18.6734,"lon":105.6923,"pop":790000,"capital":false},{"name":"Thiruvananthapuram","country":"India","iso":"IND","lat":8.4855,"lon":76.9492,"pop":788271,"capital":false},{"name":"Zhaotong","country":"China","iso":"CHN","lat":27.3167,"lon":103.7167,"pop":787845,"capital":false},{"name":"Panzhihua","country":"China","iso":"CHN","lat":26.5851,"lon":101.7128,"pop":787177,"capital":false},{"name":"Chuzhou","country":"China","iso":"CHN","lat":32.3219,"lon":118.2978,"pop":782671,"capital":false},{"name":"Seattle","country":"United States","iso":"USA","lat":47.6062,"lon":-122.3321,"pop":780995,"capital":false},{"name":"Port Said","country":"Egypt","iso":"EGY","lat":31.2653,"lon":32.3019,"pop":780515,"capital":false},{"name":"Cúcuta","country":"Colombia","iso":"COL","lat":7.9075,"lon":-72.5049,"pop":777106,"capital":false},{"name":"Homs","country":"Syria","iso":"SYR","lat":34.7241,"lon":36.7256,"pop":775404,"capital":false},{"name":"Xuancheng","country":"China","iso":"CHN","lat":30.9525,"lon":118.7553,"pop":774332,"capital":false},{"name":"Ibb","country":"Yemen","iso":"YEM","lat":13.9667,"lon":44.1833,"pop":771514,"capital":false},{"name":"Nampula","country":"Mozambique","iso":"MOZ","lat":-15.1165,"lon":39.2666,"pop":770379,"capital":false},{"name":"Shangyu","country":"China","iso":"CHN","lat":30.0156,"lon":120.8711,"pop":770000,"capital":false},{"name":"Bujumbura","country":"Burundi","iso":"BDI","lat":-3.3819,"lon":29.3614,"pop":769317,"capital":false},{"name":"Tyumen","country":"Russia","iso":"RUS","lat":57.1522,"lon":65.5272,"pop":768358,"capital":false},{"name":"Erzurum","country":"Turkey","iso":"TUR","lat":39.9086,"lon":41.2769,"pop":767848,"capital":false},{"name":"Anshun","country":"China","iso":"CHN","lat":26.25,"lon":105.9333,"pop":765313,"capital":false},{"name":"Dodoma","country":"Tanzania","iso":"TZA","lat":-6.1722,"lon":35.7395,"pop":765179,"capital":true},{"name":"Rajshahi","country":"Bangladesh","iso":"BGD","lat":24.374,"lon":88.6011,"pop":763580,"capital":false},{"name":"Dera Ismail Khan","country":"Pakistan","iso":"PAK","lat":31.8313,"lon":70.9017,"pop":763195,"capital":false},{"name":"Wuzhou","country":"China","iso":"CHN","lat":23.4805,"lon":111.2885,"pop":761948,"capital":false},{"name":"Ipoh","country":"Malaysia","iso":"MYS","lat":4.5841,"lon":101.0829,"pop":759952,"capital":false},{"name":"Qinhuangdao","country":"China","iso":"CHN","lat":39.941,"lon":119.5894,"pop":759718,"capital":false},{"name":"Benghazi","country":"Libya","iso":"LBY","lat":32.1149,"lon":20.0686,"pop":757490,"capital":false},{"name":"Alīgarh","country":"India","iso":"IND","lat":27.8815,"lon":78.0746,"pop":753207,"capital":false},{"name":"Shaoyang","country":"China","iso":"CHN","lat":27.2382,"lon":111.4621,"pop":753194,"capital":false},{"name":"Winnipeg","country":"Canada","iso":"CAN","lat":49.8844,"lon":-97.147,"pop":749607,"capital":false},{"name":"Bağcılar","country":"Turkey","iso":"TUR","lat":41.039,"lon":28.8567,"pop":749024,"capital":false},{"name":"Ōta","country":"Japan","iso":"JPN","lat":35.5613,"lon":139.7161,"pop":748081,"capital":false},{"name":"Andijon","country":"Uzbekistan","iso":"UZB","lat":40.7834,"lon":72.3507,"pop":747800,"capital":false},{"name":"Bareilly","country":"India","iso":"IND","lat":28.3668,"lon":79.4317,"pop":745435,"capital":false},{"name":"Buraydah","country":"Saudi Arabia","iso":"SAU","lat":26.326,"lon":43.975,"pop":745353,"capital":false},{"name":"São Bernardo do Campo","country":"Brazil","iso":"BRA","lat":-23.6939,"lon":-46.565,"pop":743372,"capital":false},{"name":"Hegang","country":"China","iso":"CHN","lat":47.3473,"lon":130.2903,"pop":743307,"capital":false},{"name":"Morelia","country":"Mexico","iso":"MEX","lat":19.7008,"lon":-101.1844,"pop":743275,"capital":false},{"name":"Riga","country":"Latvia","iso":"LVA","lat":56.946,"lon":24.1059,"pop":742572,"capital":true},{"name":"Tasikmalaya","country":"Indonesia","iso":"IDN","lat":-7.3274,"lon":108.2207,"pop":741760,"capital":false},{"name":"Amsterdam","country":"The Netherlands","iso":"NLD","lat":52.374,"lon":4.8897,"pop":741636,"capital":true},{"name":"Cagayan de Oro","country":"Philippines","iso":"PHL","lat":8.4822,"lon":124.6472,"pop":741617,"capital":false},{"name":"Ma’anshan","country":"China","iso":"CHN","lat":31.6858,"lon":118.5101,"pop":741531,"capital":false},{"name":"Shah Alam","country":"Malaysia","iso":"MYS","lat":3.0851,"lon":101.5328,"pop":740750,"capital":false},{"name":"Shizuishan","country":"China","iso":"CHN","lat":38.9808,"lon":106.3892,"pop":739400,"capital":false},{"name":"Kumamoto","country":"Japan","iso":"JPN","lat":32.8059,"lon":130.6918,"pop":738907,"capital":false},{"name":"Oyo","country":"Nigeria","iso":"NGA","lat":7.8537,"lon":3.9324,"pop":736072,"capital":false},{"name":"Torreón","country":"Mexico","iso":"MEX","lat":25.5439,"lon":-103.419,"pop":735340,"capital":false},{"name":"Deyang","country":"China","iso":"CHN","lat":31.1302,"lon":104.382,"pop":735070,"capital":false},{"name":"Abeokuta","country":"Nigeria","iso":"NGA","lat":7.1557,"lon":3.3451,"pop":735000,"capital":false},{"name":"Al Ḩudaydah","country":"Yemen","iso":"YEM","lat":14.7978,"lon":42.9545,"pop":734699,"capital":false},{"name":"Yangquan","country":"China","iso":"CHN","lat":37.8575,"lon":113.5633,"pop":731228,"capital":false},{"name":"Akure","country":"Nigeria","iso":"NGA","lat":7.2526,"lon":5.1931,"pop":730000,"capital":false},{"name":"São José dos Campos","country":"Brazil","iso":"BRA","lat":-23.1794,"lon":-45.8869,"pop":729737,"capital":false},{"name":"Denver","country":"United States","iso":"USA","lat":39.7392,"lon":-104.9847,"pop":729019,"capital":false},{"name":"Osasco","country":"Brazil","iso":"BRA","lat":-23.5325,"lon":-46.7917,"pop":728615,"capital":false},{"name":"Ashgabat","country":"Turkmenistan","iso":"TKM","lat":37.95,"lon":58.3833,"pop":727700,"capital":true},{"name":"Álvaro Obregón","country":"Mexico","iso":"MEX","lat":19.3587,"lon":-99.2033,"pop":726664,"capital":false},{"name":"Aihara","country":"Japan","iso":"JPN","lat":35.6,"lon":139.3167,"pop":725493,"capital":false},{"name":"Evaton","country":"South Africa","iso":"ZAF","lat":-26.5333,"lon":27.85,"pop":725468,"capital":false},{"name":"Denpasar","country":"Indonesia","iso":"IDN","lat":-8.65,"lon":115.2167,"pop":725314,"capital":false},{"name":"Valenzuela","country":"Philippines","iso":"PHL","lat":14.7,"lon":120.9667,"pop":725173,"capital":false},{"name":"Muzaffarābād","country":"Pakistan","iso":"PAK","lat":34.37,"lon":73.4708,"pop":725000,"capital":false},{"name":"Okayama","country":"Japan","iso":"JPN","lat":34.65,"lon":133.9333,"pop":724691,"capital":false},{"name":"San Luis Potosí","country":"Mexico","iso":"MEX","lat":22.1523,"lon":-100.9713,"pop":722772,"capital":false},{"name":"Aguascalientes","country":"Mexico","iso":"MEX","lat":21.8826,"lon":-102.2843,"pop":722250,"capital":false},{"name":"General Santos","country":"Philippines","iso":"PHL","lat":6.1128,"lon":125.1717,"pop":722059,"capital":false},{"name":"Zhumadian","country":"China","iso":"CHN","lat":32.9794,"lon":114.0294,"pop":721670,"capital":false},{"name":"Morādābād","country":"India","iso":"IND","lat":28.8389,"lon":78.7768,"pop":721139,"capital":false},{"name":"Sagamihara","country":"Japan","iso":"JPN","lat":35.5671,"lon":139.2417,"pop":720780,"capital":false},{"name":"Mississauga","country":"Canada","iso":"CAN","lat":43.5789,"lon":-79.6583,"pop":717961,"capital":false},{"name":"Lviv","country":"Ukraine","iso":"UKR","lat":49.8383,"lon":24.0232,"pop":717273,"capital":false},{"name":"Namangan","country":"Uzbekistan","iso":"UZB","lat":40.9983,"lon":71.6726,"pop":713220,"capital":false},{"name":"Ribeirão Preto","country":"Brazil","iso":"BRA","lat":-21.1775,"lon":-47.8103,"pop":711825,"capital":false},{"name":"Zaporizhzhya","country":"Ukraine","iso":"UKR","lat":47.8517,"lon":35.1171,"pop":710052,"capital":false},{"name":"Zanzibar","country":"Tanzania","iso":"TZA","lat":-6.1639,"lon":39.1979,"pop":709809,"capital":false},{"name":"Saltillo","country":"Mexico","iso":"MEX","lat":25.426,"lon":-100.9796,"pop":709671,"capital":false},{"name":"Latakia","country":"Syria","iso":"SYR","lat":35.5313,"lon":35.7909,"pop":709000,"capital":false},{"name":"Subang Jaya","country":"Malaysia","iso":"MYS","lat":3.0438,"lon":101.5806,"pop":708296,"capital":false},{"name":"Warangal","country":"India","iso":"IND","lat":18,"lon":79.5833,"pop":704570,"capital":false},{"name":"Paranaque City","country":"Philippines","iso":"PHL","lat":14.4816,"lon":121.0175,"pop":703245,"capital":false},{"name":"Tolyatti","country":"Russia","iso":"RUS","lat":53.5303,"lon":49.3461,"pop":702879,"capital":false},{"name":"Jaboatão","country":"Brazil","iso":"BRA","lat":-8.1803,"lon":-35.0014,"pop":702621,"capital":false},{"name":"Santo Domingo Oeste","country":"Dominican Republic","iso":"DOM","lat":18.5,"lon":-70,"pop":701269,"capital":false},{"name":"Santo Domingo Este","country":"Dominican Republic","iso":"DOM","lat":18.4851,"lon":-69.8476,"pop":700000,"capital":false},{"name":"Dhārāvi","country":"India","iso":"IND","lat":19.05,"lon":72.8667,"pop":700000,"capital":false},{"name":"Battagram","country":"Pakistan","iso":"PAK","lat":34.6772,"lon":73.0233,"pop":700000,"capital":false},{"name":"Suez","country":"Egypt","iso":"EGY","lat":29.9737,"lon":32.5263,"pop":699541,"capital":false},{"name":"Changzhi","country":"China","iso":"CHN","lat":35.2089,"lon":111.7386,"pop":699514,"capital":false},{"name":"Agadir","country":"Morocco","iso":"MAR","lat":30.4202,"lon":-9.5981,"pop":698310,"capital":false},{"name":"Edogawe","country":"Japan","iso":"JPN","lat":35.6923,"lon":139.8731,"pop":697932,"capital":false},{"name":"Sarajevo","country":"Bosnia and Herzegovina","iso":"BIH","lat":43.8486,"lon":18.3564,"pop":696731,"capital":true},{"name":"Balikpapan","country":"Indonesia","iso":"IDN","lat":-1.2675,"lon":116.8289,"pop":695287,"capital":false},{"name":"Adachi","country":"Japan","iso":"JPN","lat":35.7632,"lon":139.8076,"pop":695043,"capital":false},{"name":"Changning","country":"China","iso":"CHN","lat":31.2174,"lon":121.4211,"pop":694900,"capital":false},{"name":"Bauchi","country":"Nigeria","iso":"NGA","lat":10.3103,"lon":9.8439,"pop":693700,"capital":false},{"name":"Shizuoka","country":"Japan","iso":"JPN","lat":34.9833,"lon":138.3833,"pop":693389,"capital":false},{"name":"Tunis","country":"Tunisia","iso":"TUN","lat":36.819,"lon":10.1658,"pop":693210,"capital":true},{"name":"Zhangjiakou","country":"China","iso":"CHN","lat":40.7834,"lon":114.8714,"pop":692602,"capital":false},{"name":"Serang","country":"Indonesia","iso":"IDN","lat":-6.1153,"lon":106.1542,"pop":692101,"capital":false},{"name":"Washington","country":"United States","iso":"USA","lat":38.8951,"lon":-77.0364,"pop":689545,"capital":true},{"name":"Nashville","country":"United States","iso":"USA","lat":36.1659,"lon":-86.7844,"pop":689447,"capital":false},{"name":"Fuxin","country":"China","iso":"CHN","lat":42.0156,"lon":121.6589,"pop":689050,"capital":false},{"name":"Ta’if","country":"Saudi Arabia","iso":"SAU","lat":21.2703,"lon":40.4158,"pop":688693,"capital":false},{"name":"Changsha","country":"China","iso":"CHN","lat":22.3812,"lon":112.6849,"pop":688242,"capital":false},{"name":"Huangshi","country":"China","iso":"CHN","lat":30.2471,"lon":115.0481,"pop":688090,"capital":false},{"name":"Liaoyang","country":"China","iso":"CHN","lat":41.2719,"lon":123.1731,"pop":687890,"capital":false},{"name":"Hlaingthaya","country":"Myanmar","iso":"MMR","lat":16.85,"lon":96.0667,"pop":687867,"capital":false},{"name":"Beira","country":"Mozambique","iso":"MOZ","lat":-19.8436,"lon":34.8389,"pop":687764,"capital":false},{"name":"Hongkou","country":"China","iso":"CHN","lat":31.25,"lon":121.4892,"pop":687500,"capital":false},{"name":"Sorocaba","country":"Brazil","iso":"BRA","lat":-23.5017,"lon":-47.4581,"pop":687357,"capital":false},{"name":"Zaragoza","country":"Spain","iso":"ESP","lat":41.6561,"lon":-0.8773,"pop":686986,"capital":false},{"name":"Sevilla","country":"Spain","iso":"ESP","lat":37.3828,"lon":-5.9732,"pop":686741,"capital":false},{"name":"Baise","country":"China","iso":"CHN","lat":23.8901,"lon":106.6268,"pop":686078,"capital":false},{"name":"Situbondo","country":"Indonesia","iso":"IDN","lat":-7.7062,"lon":114.0098,"pop":685967,"capital":false},{"name":"Binzhou","country":"China","iso":"CHN","lat":37.3667,"lon":118.0167,"pop":682717,"capital":false},{"name":"Oklahoma City","country":"United States","iso":"USA","lat":35.4676,"lon":-97.5164,"pop":681054,"capital":false},{"name":"Yuncheng","country":"China","iso":"CHN","lat":35.0231,"lon":110.9928,"pop":680036,"capital":false},{"name":"Dezhou","country":"China","iso":"CHN","lat":37.4466,"lon":116.3671,"pop":679535,"capital":false},{"name":"Dushanbe","country":"Tajikistan","iso":"TJK","lat":38.5358,"lon":68.7791,"pop":679400,"capital":true},{"name":"Cotonou","country":"Benin","iso":"BEN","lat":6.3654,"lon":2.4183,"pop":679012,"capital":false},{"name":"El Paso","country":"United States","iso":"USA","lat":31.7587,"lon":-106.4869,"pop":678815,"capital":false},{"name":"Gorakhpur","country":"India","iso":"IND","lat":26.7663,"lon":83.3689,"pop":674246,"capital":false},{"name":"Guadalupe","country":"Mexico","iso":"MEX","lat":25.6768,"lon":-100.2565,"pop":673616,"capital":false},{"name":"Wrocław","country":"Poland","iso":"POL","lat":51.1029,"lon":17.0301,"pop":672545,"capital":false},{"name":"Guntur","country":"India","iso":"IND","lat":16.2997,"lon":80.4573,"pop":670073,"capital":false},{"name":"Katsina","country":"Nigeria","iso":"NGA","lat":12.9908,"lon":7.6018,"pop":670000,"capital":false},{"name":"Sanmenxia","country":"China","iso":"CHN","lat":34.7808,"lon":111.1929,"pop":669307,"capital":false},{"name":"E’zhou","country":"China","iso":"CHN","lat":30.3961,"lon":114.8866,"pop":668727,"capital":false},{"name":"Madīnat an Naşr","country":"Egypt","iso":"EGY","lat":30.0667,"lon":31.3,"pop":668413,"capital":false},{"name":"Tabuk","country":"Saudi Arabia","iso":"SAU","lat":28.3998,"lon":36.5715,"pop":667000,"capital":false},{"name":"Kitwe","country":"Zambia","iso":"ZMB","lat":-12.8024,"lon":28.2132,"pop":665961,"capital":false},{"name":"Bulawayo","country":"Zimbabwe","iso":"ZWE","lat":-20.15,"lon":28.5833,"pop":665952,"capital":false},{"name":"Mudanjiang","country":"China","iso":"CHN","lat":44.548,"lon":129.6259,"pop":665915,"capital":false},{"name":"Aracaju","country":"Brazil","iso":"BRA","lat":-10.9111,"lon":-37.0717,"pop":664908,"capital":false},{"name":"Athens","country":"Greece","iso":"GRC","lat":37.9838,"lon":23.7278,"pop":664046,"capital":true},{"name":"Zagreb","country":"Croatia","iso":"HRV","lat":45.8144,"lon":15.978,"pop":663592,"capital":true},{"name":"Leshan","country":"China","iso":"CHN","lat":29.5623,"lon":103.7639,"pop":662814,"capital":false},{"name":"Santo André","country":"Brazil","iso":"BRA","lat":-23.6639,"lon":-46.5383,"pop":662373,"capital":false},{"name":"Vancouver","country":"Canada","iso":"CAN","lat":49.2497,"lon":-123.1193,"pop":662248,"capital":false},{"name":"Rizhao","country":"China","iso":"CHN","lat":35.4141,"lon":119.5291,"pop":661943,"capital":false},{"name":"Helsinki","country":"Finland","iso":"FIN","lat":60.1695,"lon":24.9355,"pop":658864,"capital":true},{"name":"Cheonan","country":"South Korea","iso":"KOR","lat":36.8065,"lon":127.1522,"pop":658831,"capital":false},{"name":"Pontianak","country":"Indonesia","iso":"IDN","lat":-0.0319,"lon":109.325,"pop":658685,"capital":false},{"name":"Acapulco de Juárez","country":"Mexico","iso":"MEX","lat":16.8494,"lon":-99.9089,"pop":658609,"capital":false},{"name":"Banjarmasin","country":"Indonesia","iso":"IDN","lat":-3.3199,"lon":114.5908,"pop":657663,"capital":false},{"name":"Puducherry","country":"India","iso":"IND","lat":11.9338,"lon":79.8298,"pop":657209,"capital":false},{"name":"Suining","country":"China","iso":"CHN","lat":30.508,"lon":105.5733,"pop":656760,"capital":false},{"name":"Brampton","country":"Canada","iso":"CAN","lat":43.6834,"lon":-79.7663,"pop":656480,"capital":false},{"name":"Puyang","country":"China","iso":"CHN","lat":35.7564,"lon":115.0436,"pop":655674,"capital":false},{"name":"Soacha","country":"Colombia","iso":"COL","lat":4.5794,"lon":-74.2168,"pop":655025,"capital":false},{"name":"Boston","country":"United States","iso":"USA","lat":42.3584,"lon":-71.0598,"pop":653833,"capital":false},{"name":"Tlalnepantla","country":"Mexico","iso":"MEX","lat":19.5401,"lon":-99.1954,"pop":653410,"capital":false},{"name":"Portland","country":"United States","iso":"USA","lat":45.5234,"lon":-122.6762,"pop":652503,"capital":false},{"name":"Tlaquepaque","country":"Mexico","iso":"MEX","lat":20.6412,"lon":-103.2934,"pop":650123,"capital":false},{"name":"Frankfurt am Main","country":"Germany","iso":"DEU","lat":50.1155,"lon":8.6842,"pop":650000,"capital":false},{"name":"Macau","country":"Macao","iso":"MAC","lat":22.2006,"lon":113.5461,"pop":649335,"capital":true},{"name":"Palermo","country":"Italy","iso":"ITA","lat":38.1166,"lon":13.3636,"pop":648260,"capital":false},{"name":"Izhevsk","country":"Russia","iso":"RUS","lat":56.8523,"lon":53.1986,"pop":648213,"capital":false},{"name":"Colombo","country":"Sri Lanka","iso":"LKA","lat":6.9355,"lon":79.8487,"pop":648034,"capital":true},{"name":"Maturín","country":"Venezuela","iso":"VEN","lat":9.7457,"lon":-63.1832,"pop":647459,"capital":false},{"name":"Amravati","country":"India","iso":"IND","lat":20.9333,"lon":77.75,"pop":647057,"capital":false},{"name":"Detroit","country":"United States","iso":"USA","lat":42.3314,"lon":-83.0457,"pop":645705,"capital":false},{"name":"Łódź","country":"Poland","iso":"POL","lat":51.7706,"lon":19.4739,"pop":645693,"capital":false},{"name":"Osogbo","country":"Nigeria","iso":"NGA","lat":7.771,"lon":4.557,"pop":645000,"capital":false},{"name":"Honchō","country":"Japan","iso":"JPN","lat":35.7013,"lon":139.9865,"pop":644668,"capital":false},{"name":"Bikaner","country":"India","iso":"IND","lat":28.0176,"lon":73.315,"pop":644406,"capital":false},{"name":"Jaboatão dos Guararapes","country":"Brazil","iso":"BRA","lat":-8.1128,"lon":-35.0147,"pop":644037,"capital":false},{"name":"Las Vegas","country":"United States","iso":"USA","lat":36.175,"lon":-115.1372,"pop":641903,"capital":false},{"name":"New South Memphis","country":"United States","iso":"USA","lat":35.0868,"lon":-90.0568,"pop":641608,"capital":false},{"name":"Hwaseong-si","country":"South Korea","iso":"KOR","lat":37.2068,"lon":126.8169,"pop":640890,"capital":false},{"name":"Gold Coast","country":"Australia","iso":"AUS","lat":-28.0003,"lon":153.4309,"pop":640778,"capital":false},{"name":"Chongming","country":"China","iso":"CHN","lat":31.6185,"lon":121.6962,"pop":637921,"capital":false},{"name":"Al Aḩmadī","country":"Kuwait","iso":"KWT","lat":29.0769,"lon":48.0839,"pop":637411,"capital":false},{"name":"Cuenca","country":"Ecuador","iso":"ECU","lat":-2.8953,"lon":-78.9963,"pop":636996,"capital":false},{"name":"Chisinau","country":"Moldova","iso":"MDA","lat":47.009,"lon":28.8594,"pop":635994,"capital":true},{"name":"Likasi","country":"Democratic Republic of the Congo","iso":"COD","lat":-10.983,"lon":26.7384,"pop":635768,"capital":false},{"name":"Hebi","country":"China","iso":"CHN","lat":35.7323,"lon":114.2862,"pop":634721,"capital":false},{"name":"Tshikapa","country":"Democratic Republic of the Congo","iso":"COD","lat":-6.4162,"lon":20.8,"pop":634529,"capital":false},{"name":"Kochi","country":"India","iso":"IND","lat":9.9399,"lon":76.2602,"pop":633553,"capital":false},{"name":"Memphis","country":"United States","iso":"USA","lat":35.1495,"lon":-90.049,"pop":633104,"capital":false},{"name":"Jingmen","country":"China","iso":"CHN","lat":31.0336,"lon":112.2047,"pop":632954,"capital":false},{"name":"Barnaul","country":"Russia","iso":"RUS","lat":53.362,"lon":83.7279,"pop":632372,"capital":false},{"name":"Dandong","country":"China","iso":"CHN","lat":40.1292,"lon":124.3947,"pop":631973,"capital":false},{"name":"Stuttgart","country":"Germany","iso":"DEU","lat":48.7823,"lon":9.177,"pop":630305,"capital":false},{"name":"Jeonju","country":"South Korea","iso":"KOR","lat":35.8219,"lon":127.1489,"pop":629618,"capital":false},{"name":"Bhilai","country":"India","iso":"IND","lat":21.2092,"lon":81.4285,"pop":627734,"capital":false},{"name":"Ndola","country":"Zambia","iso":"ZMB","lat":-12.9587,"lon":28.6366,"pop":627503,"capital":false},{"name":"Contagem","country":"Brazil","iso":"BRA","lat":-19.9317,"lon":-44.0536,"pop":627123,"capital":false},{"name":"Ulyanovsk","country":"Russia","iso":"RUS","lat":54.3282,"lon":48.3866,"pop":626540,"capital":false},{"name":"Djibouti","country":"Djibouti","iso":"DJI","lat":11.589,"lon":43.145,"pop":626512,"capital":true},{"name":"Glasgow","country":"United Kingdom","iso":"GBR","lat":55.8652,"lon":-4.2576,"pop":626410,"capital":false},{"name":"Panshan","country":"China","iso":"CHN","lat":41.1881,"lon":122.0494,"pop":625040,"capital":false},{"name":"Louisville","country":"United States","iso":"USA","lat":38.2542,"lon":-85.7594,"pop":624444,"capital":false},{"name":"Irkutsk","country":"Russia","iso":"RUS","lat":52.2957,"lon":104.2908,"pop":623869,"capital":false},{"name":"Ansan-si","country":"South Korea","iso":"KOR","lat":37.3236,"lon":126.8219,"pop":623256,"capital":false},{"name":"Al Mansurah","country":"Egypt","iso":"EGY","lat":31.0364,"lon":31.3807,"pop":621953,"capital":false},{"name":"Kermanshah","country":"Iran","iso":"IRN","lat":34.3142,"lon":47.065,"pop":621100,"capital":false},{"name":"Düsseldorf","country":"Germany","iso":"DEU","lat":51.2217,"lon":6.7762,"pop":620523,"capital":false},{"name":"Feira de Santana","country":"Brazil","iso":"BRA","lat":-12.2667,"lon":-38.9667,"pop":619609,"capital":false},{"name":"Jiaozhou","country":"China","iso":"CHN","lat":36.2839,"lon":120.0033,"pop":619266,"capital":false},{"name":"Suizhou","country":"China","iso":"CHN","lat":31.7111,"lon":113.3631,"pop":618582,"capital":false},{"name":"Villa Nueva","country":"Guatemala","iso":"GTM","lat":14.5251,"lon":-90.5854,"pop":618397,"capital":false},{"name":"Khabarovsk","country":"Russia","iso":"RUS","lat":48.462,"lon":135.0971,"pop":618150,"capital":false},{"name":"Cuiabá","country":"Brazil","iso":"BRA","lat":-15.5961,"lon":-56.0967,"pop":618124,"capital":false},{"name":"Arusha","country":"Tanzania","iso":"TZA","lat":-3.3667,"lon":36.6833,"pop":617631,"capital":false},